School_ID,School_Name,Zip,School_Type,Administrator_Title,AttendanceBoundaries,Student_Count_Total,Student_Count_Low_Income,Student_Count_Special_Ed,Student_Count_English_Learners,Student_Count_Black,Student_Count_Hispanic,Student_Count_White,Student_Count_Asian,Student_Count_Native_American,Student_Count_Other_Ethnicity,Student_Count_Asian_Pacific_Islander,Student_Count_Multi,Student_Count_Hawaiian_Pacific_Islander,Student_Count_Ethnicity_Not_Available,Demographic_Description,ADA_Accessible,DressCode,PreK_School_Day,Kindergarten_School_Day,Classroom_Languages,BilingualServices,RefugeeServices,Title1Eligible,PreSchoolInclusive,PreschoolInstructional,SignificantlyModified,HardOfHearing,VisualImpairments,School_Latitude,School_Longitude,Average_ACT_School,PercentCollege,PercentGraduate,Overall_Rating,Rating_Status
610109,William Bishop Owen Scholastic Academy ES,60652,Magnet,Principal,FALSE,265,154,30,6,244,17,2,0,0,0,0,2,0,0,The largest demographic at OWEN is Black.  This demographic makes up 92.1% of the student population.  The second greatest demographic is Hispanic at 6.4%.,Generally accessible,TRUE,,Full Day,,,,TRUE,,,TRUE,,,41.74285,-87.705749,,,,Level 1,Good Standing
400051,Noble - Noble College Prep,60622,Charter,Director,FALSE,631,540,74,56,58,554,10,3,4,0,0,2,0,0,The largest demographic at NOBLE - NOBLE HS is Hispanic.  This demographic makes up 87.8% of the student population.  The second greatest demographic is Black at 9.2%.,No/unknown accessibility,TRUE,,,Russian,FALSE,FALSE,TRUE,,,,,,41.900191,-87.662628,21.2,84.7,92.8,Level 1+,Not Applicable
610566,Magic Johnson- North Lawndale HS,60624,Citywide-Option,Principal,FALSE,185,179,40,2,171,10,1,0,1,0,0,1,0,1,The largest demographic at MAGIC JOHNSON - N LAWNDALE HS is Black.  This demographic makes up 92.4% of the student population.  The second greatest demographic is Hispanic at 5.4%.,No/unknown accessibility,FALSE,,,,,,,,,,,,41.866478,-87.706604,12.9,12.5,,Level 2+,Not Applicable
610557,Pathways in Education- Ashburn,60652,Citywide-Option,Principal,FALSE,264,233,25,23,57,174,24,0,4,0,0,2,0,3,The largest demographic at PATHWAYS - ASHBURN HS is Hispanic.  This demographic makes up 65.9% of the student population.  The second greatest demographic is Black at 21.6%.,No/unknown accessibility,FALSE,,,,,,TRUE,,,,,,41.735239,-87.70406,15.1,18.8,0,Level 2,Not Applicable
610066,James E McDade Elementary Classical School,60619,Classical,Principal,FALSE,196,64,9,0,179,3,2,5,0,0,0,6,1,0,The largest demographic at MCDADE is Black.  This demographic makes up 91.3% of the student population.  The second greatest demographic is Other at 3.6%.,Generally accessible,FALSE,,Full Day,,,,FALSE,,,,,,41.73455,-87.619214,,,,Level 1+,Good Standing
400055,Noble - Rauner College Prep,60642,Charter,Director,FALSE,634,522,101,69,83,517,17,1,7,0,0,5,0,4,The largest demographic at NOBLE - RAUNER HS is Hispanic.  This demographic makes up 81.5% of the student population.  The second greatest demographic is Black at 13.1%.,Generally accessible,TRUE,,,Spanish,TRUE,FALSE,TRUE,,,,,,41.892425,-87.660859,20.9,77.2,85.6,Level 1+,Not Applicable
610402,DeVry University Advantage Academy HS,60618,Magnet,Principal,FALSE,194,135,3,1,71,85,21,14,1,0,0,2,0,0,The largest demographic at DEVRY HS is Hispanic.  This demographic makes up 43.8% of the student population.  The second greatest demographic is Black at 36.6%.,Fully Accessible,FALSE,,Full Day,"French, Spanish",TRUE,,TRUE,,,,,,41.941388,-87.690761,21.1,80,,Level 1+,Good Standing
610016,Kate S Kellogg Elementary School,60643,Neighborhood,Principal,TRUE,248,90,35,1,205,6,25,0,2,0,0,10,0,0,The largest demographic at KELLOGG is Black.  This demographic makes up 82.7% of the student population.  The second greatest demographic is White at 10.1%.,No/unknown accessibility,TRUE,,Full Day,,,,FALSE,,,,,,41.725263,-87.677233,,,,Level 1+,Good Standing
610362,Medgar Evers Elementary School,60628,Neighborhood,Principal,TRUE,315,280,45,6,310,4,0,0,0,0,0,0,1,0,The largest demographic at EVERS is Black.  This demographic makes up 98.4% of the student population.  The second greatest demographic is Hispanic at 1.3%.,No/unknown accessibility,TRUE,Half Day,Full Day,,,,TRUE,,,,,,41.715665,-87.639305,,,,Level 1+,Good Standing
609895,Turner-Drew Elementary Language Academy,60620,Magnet,Principal,FALSE,259,183,37,0,254,5,0,0,0,0,0,0,0,0,The largest demographic at TURNER-DREW is Black.  This demographic makes up 98.1% of the student population.  The second greatest demographic is Hispanic at 1.9%.,Generally accessible,TRUE,,Full Day,,,,TRUE,,,,,,41.725609,-87.630164,,,,Level 2+,Good Standing
400047,L.E.A.R.N. - Charles and Dorothy Campbell Campus,60612,Charter,Director,FALSE,427,414,38,5,398,24,1,0,0,0,0,1,0,3,The largest demographic at LEARN - CAMPBELL is Black.  This demographic makes up 93.2% of the student population.  The second greatest demographic is Hispanic at 5.6%.,Fully Accessible,TRUE,,Full Day,,,,TRUE,,,,,,41.877861,-87.698739,,,,Level 2+,Not Applicable
400112,UNO 51st and Homan Charter Elementary School,60632,Charter,Director,FALSE,576,544,31,254,0,573,1,0,2,0,0,0,0,0,The largest demographic at UNO - SOCCER ELEM is Hispanic.  This demographic makes up 99.5% of the student population.  The second greatest demographic is NativeAmer. at 0.3%.,No/unknown accessibility,FALSE,,,,,,TRUE,,,,,,41.801042,-87.708797,,,,Level 1,Not Applicable
610136,William H Prescott Elementary School,60614,Neighborhood,Principal,TRUE,373,151,45,52,48,149,134,20,1,0,0,17,1,3,The largest demographic at PRESCOTT is Hispanic.  This demographic makes up 39.9% of the student population.  The second greatest demographic is White at 35.9%.,No/unknown accessibility,TRUE,Half Day,Full Day,,,,FALSE,,,,,,41.928841,-87.669528,,,,Level 1+,Good Standing
610086,Mount Vernon Elementary School,60643,Neighborhood,Principal,TRUE,261,248,60,1,259,2,0,0,0,0,0,0,0,0,The largest demographic at MOUNT VERNON is Black.  This demographic makes up 99.2% of the student population.  The second greatest demographic is Hispanic at 0.8%.,No/unknown accessibility,TRUE,Full Day,Full Day,,,,TRUE,,,,,,41.701952,-87.647652,,,,Level 2+,Good Standing
610084,Annie Keller Elementary Gifted Magnet School,60655,Regional gifted center,Principal,FALSE,240,48,6,4,83,26,72,46,0,0,0,7,2,4,The largest demographic at KELLER is Black.  This demographic makes up 34.6% of the student population.  The second greatest demographic is White at 30%.,Fully Accessible,FALSE,,Full Day,,,,FALSE,,,TRUE,,,41.69717,-87.697278,,,,Level 1+,Good Standing
610316,Amelia Earhart Options for Knowledge ES,60617,Neighborhood,Principal,TRUE,248,180,23,7,239,4,0,0,0,0,0,5,0,0,The largest demographic at EARHART is Black.  This demographic makes up 96.4% of the student population.  The second greatest demographic is Other at 2%.,Generally accessible,TRUE,,Full Day,,,,TRUE,,,,,,41.726107,-87.582182,,,,Level 1,Good Standing
400072,Betty Shabazz - Betty Shabazz,60619,Charter,Director,FALSE,198,186,22,1,192,2,0,0,0,0,0,2,0,2,The largest demographic at SHABAZZ - SHABAZZ is Black.  This demographic makes up 97% of the student population.  The second greatest demographic is Other at 2%.,No/unknown accessibility,TRUE,,Full Day,,,,TRUE,,,,,,41.752458,-87.600255,,,,Level 1,Not Applicable
610384,Infinity Math Science and Technology High School,60623,Small,Principal,TRUE,406,382,55,48,6,395,3,1,0,0,0,1,0,0,The largest demographic at INFINITY HS is Hispanic.  This demographic makes up 97.3% of the student population.  The second greatest demographic is Black at 1.5%.,Fully Accessible,TRUE,,Full Day,"Spanish, Spanish for Heritage Speakers",TRUE,FALSE,TRUE,,,,,,41.836169,-87.735278,18.8,58.5,94.2,Level 1+,Good Standing
609680,Walter Payton College Preparatory High School,60610,Selective enrollment,Principal,FALSE,974,304,51,6,122,216,420,162,4,0,0,45,4,1,The largest demographic at PAYTON HS is White.  This demographic makes up 43.1% of the student population.  The second greatest demographic is Hispanic at 22.2%.,Fully Accessible,FALSE,,Full Day,"Chinese, French, Japanese, Latin, Spanish",TRUE,FALSE,FALSE,,,TRUE,,TRUE,41.901575,-87.635385,29.6,87.7,95.3,Level 1+,Good Standing
610131,Ambrose Plamondon Elementary School,60608,Neighborhood,Principal,FALSE,144,140,21,32,44,96,1,0,0,0,0,2,0,1,The largest demographic at PLAMONDON is Hispanic.  This demographic makes up 66.7% of the student population.  The second greatest demographic is Black at 30.6%.,No/unknown accessibility,TRUE,,Full Day,,TRUE,,TRUE,,,,,,41.860259,-87.692526,,,,Level 2,Provisional Support
610524,Louisa May Alcott College Preparatory HS,60618,Small,Principal,FALSE,328,262,42,19,56,232,26,5,2,0,0,6,1,0,The largest demographic at ALCOTT HS is Hispanic.  This demographic makes up 70.7% of the student population.  The second greatest demographic is Black at 17.1%.,Fully Accessible,FALSE,,Full Day,"French, Spanish",TRUE,FALSE,FALSE,,,TRUE,,,41.935795,-87.680562,17.6,59.6,87.1,Level 1+,Good Standing
609754,Chicago Military Academy High School,60653,Military academy,Principal,FALSE,291,271,39,12,204,80,5,0,0,0,0,2,0,0,The largest demographic at CHICAGO MILITARY HS is Black.  This demographic makes up 70.1% of the student population.  The second greatest demographic is Hispanic at 27.5%.,Fully Accessible,TRUE,,Full Day,Spanish,TRUE,FALSE,TRUE,,,,,,41.830555,-87.619216,16.9,44.8,85.4,Level 1,Good Standing
400079,UNO Charter School - SPC Daniel Zizumbo,60632,Charter,Director,FALSE,622,562,51,259,0,611,8,0,1,0,0,1,0,1,The largest demographic at UNO - ZIZUMBO is Hispanic.  This demographic makes up 98.2% of the student population.  The second greatest demographic is White at 1.3%.,Fully Accessible,TRUE,,Full Day,,,,TRUE,,,,,,41.810135,-87.730495,,,,Level 1+,Not Applicable
609925,Joseph Kellman Corporate Community ES,60612,Neighborhood,Principal,TRUE,350,343,19,0,349,0,0,0,0,0,0,0,0,1,The largest demographic at KELLMAN is Black.  This demographic makes up 99.7% of the student population.  The second greatest demographic is Other at 0.3%.,Fully Accessible,TRUE,Full Day,Full Day,,,,TRUE,,,,,,41.870168,-87.702163,,,,Level 2+,Provisional Support
400054,Noble - Pritzker College Prep,60639,Charter,Director,FALSE,996,941,107,91,27,956,5,1,4,0,0,3,0,0,The largest demographic at NOBLE - PRITZKER HS is Hispanic.  This demographic makes up 96% of the student population.  The second greatest demographic is Black at 2.7%.,Generally accessible,TRUE,,,"Latin, Spanish",FALSE,FALSE,TRUE,,,,,,41.915214,-87.730127,21.9,85.7,90.3,Level 1+,Not Applicable
610199,Johnnie Colemon Elementary Academy,60643,Neighborhood,Principal,TRUE,257,218,26,14,240,15,0,2,0,0,0,0,0,0,The largest demographic at COLEMON is Black.  This demographic makes up 93.4% of the student population.  The second greatest demographic is Hispanic at 5.8%.,No/unknown accessibility,TRUE,Half Day,Full Day,,,,TRUE,,,,,,41.677505,-87.658111,,,,Level 1+,Good Standing
610394,Uplift Community High School,60640,Small,Principal,FALSE,291,281,103,29,235,42,7,5,1,0,0,1,0,0,The largest demographic at UPLIFT HS is Black.  This demographic makes up 80.8% of the student population.  The second greatest demographic is Hispanic at 14.4%.,Generally accessible,FALSE,,Full Day,"French, Spanish",FALSE,FALSE,TRUE,,,TRUE,,,41.965547,-87.652473,15.6,65.4,74.3,Level 2+,Good Standing
609924,Fort Dearborn Elementary School,60620,Neighborhood,Principal,TRUE,402,396,62,0,395,5,0,0,0,0,0,1,1,0,The largest demographic at FORT DEARBORN is Black.  This demographic makes up 98.3% of the student population.  The second greatest demographic is Hispanic at 1.2%.,Generally accessible,TRUE,Half Day,Full Day,,,,TRUE,,,,,,41.729673,-87.655481,,,,Level 2+,Good Standing
610029,Rodolfo Lozano Bilingual & International Ctr ES,60642,Neighborhood,Principal,TRUE,232,211,67,115,32,186,8,0,1,0,0,4,1,0,The largest demographic at LOZANO is Hispanic.  This demographic makes up 80.2% of the student population.  The second greatest demographic is Black at 13.8%.,Fully Accessible,TRUE,Full Day,Full Day,Spanish,TRUE,,TRUE,,,TRUE,,,41.908886,-87.665093,,,,Level 1,Good Standing
609926,Franklin Elementary Fine Arts Center,60610,Magnet,Principal,FALSE,357,140,41,12,136,75,111,25,0,0,0,10,0,0,The largest demographic at FRANKLIN is Black.  This demographic makes up 38.1% of the student population.  The second greatest demographic is White at 31.1%.,Generally accessible,FALSE,,Full Day,,,,FALSE,,,,,,41.9066,-87.635513,,,,Level 1,Good Standing
400098,Noble - Muchin College Prep,60602,Charter,Director,FALSE,937,790,112,61,242,635,9,45,3,0,0,3,0,0,The largest demographic at NOBLE - MUCHIN HS is Hispanic.  This demographic makes up 67.8% of the student population.  The second greatest demographic is Black at 25.8%.,Generally accessible,TRUE,,,Spanish,FALSE,FALSE,TRUE,,,,,,41.88274,-87.626338,21.8,88.4,86.4,Level 1+,Not Applicable
400136,YCCS-Olive Harvey Middle College HS,60628,Charter,Director,FALSE,117,110,18,1,107,10,0,0,0,0,0,0,0,0,The largest demographic at YCCS - OLIVE HARVEY is Black.  This demographic makes up 91.5% of the student population.  The second greatest demographic is Hispanic at 8.5%.,No/unknown accessibility,FALSE,,,,,,,,,,,,41.712922,-87.592333,15.1,39.3,,Level 1,Not Applicable
400179,Noble Mansueto High School,60632,Charter,Director,FALSE,177,163,20,38,3,163,2,8,1,0,0,0,0,0,The largest demographic at NOBLE - MANSUETO HS is Hispanic.  This demographic makes up 92.1% of the student population.  The second greatest demographic is Asian at 4.5%.,No/unknown accessibility,FALSE,,,,,,,,,,,,41.800136,-87.728003,,,,Inability to Rate,
609749,Northside College Preparatory High School,60625,Selective enrollment,Principal,FALSE,1070,415,66,6,90,307,322,207,3,0,4,49,1,87,The largest demographic at NORTHSIDE PREP HS is White.  This demographic makes up 30.1% of the student population.  The second greatest demographic is Hispanic at 28.7%.,Fully Accessible,FALSE,,Full Day,"Chinese, French, Japanese, Latin, Spanish",FALSE,FALSE,FALSE,,,TRUE,,,41.981315,-87.708708,29.5,93.4,97.8,Level 1+,Good Standing
609817,Lyman A Budlong Elementary School,60625,Neighborhood,Principal,TRUE,797,661,73,385,39,319,203,147,2,0,0,21,1,65,The largest demographic at BUDLONG is Hispanic.  This demographic makes up 40% of the student population.  The second greatest demographic is White at 25.5%.,No/unknown accessibility,TRUE,Half Day,Full Day,,,,TRUE,,,,,,41.975754,-87.696556,,,,Level 1+,Good Standing
610392,World Language Academy High School,60623,Small,Principal,TRUE,336,329,46,66,29,304,3,0,0,0,0,0,0,0,The largest demographic at WORLD LANGUAGE HS is Hispanic.  This demographic makes up 90.5% of the student population.  The second greatest demographic is Black at 8.6%.,Fully Accessible,TRUE,,Full Day,"Spanish, Spanish for Heritage Speakers",TRUE,FALSE,TRUE,,,,,,41.834397,-87.735292,17.5,57.8,77.9,Level 1,Good Standing
400131,YCCS-Dr. Pedro Albizu Campos Puerto Rican HS,60622,Charter,Director,FALSE,164,155,39,11,32,128,4,0,0,0,0,0,0,0,The largest demographic at YCCS - CAMPOS is Hispanic.  This demographic makes up 78% of the student population.  The second greatest demographic is Black at 19.5%.,No/unknown accessibility,FALSE,,,,,,,,,,,,41.90285,-87.696006,14,19.1,,Level 1,Not Applicable
610547,South Shore Intl College Prep High School,60649,Selective enrollment,Principal,TRUE,587,493,50,4,559,19,1,0,0,0,0,8,0,0,The largest demographic at SOUTH SHORE INTL HS is Black.  This demographic makes up 95.2% of the student population.  The second greatest demographic is Hispanic at 3.2%.,No/unknown accessibility,TRUE,,Full Day,"Chinese, Spanish",FALSE,FALSE,TRUE,,,TRUE,,,41.758792,-87.576353,17.9,64.2,71,Level 1,Good Standing
400082,UNO Charter School - Carlos Fuentes,60618,Charter,Director,TRUE,555,512,74,247,3,542,6,3,0,0,0,1,0,0,The largest demographic at UNO - FUENTES is Hispanic.  This demographic makes up 97.7% of the student population.  The second greatest demographic is White at 1.1%.,No/unknown accessibility,TRUE,,Full Day,,,,TRUE,,,,,,41.937476,-87.699594,,,,Level 1,Not Applicable
400156,Noble - Butler College Prep,60628,Charter,Director,FALSE,568,531,107,9,546,16,0,0,0,0,0,2,1,3,The largest demographic at NOBLE - BUTLER HS is Black.  This demographic makes up 96.1% of the student population.  The second greatest demographic is Hispanic at 2.8%.,No/unknown accessibility,TRUE,,,,FALSE,FALSE,,,,,,,41.706667,-87.602573,19.2,,,Level 1+,Not Applicable
610221,Daniel Webster Elementary School,60624,Neighborhood,Principal,TRUE,319,248,32,0,304,3,0,0,0,0,0,0,0,12,The largest demographic at WEBSTER is Black.  This demographic makes up 95.3% of the student population.  The second greatest demographic is Other at 3.8%.,No/unknown accessibility,TRUE,Full Day,Full Day,,,,TRUE,,,,,,41.869916,-87.727524,,,,Level 1,Good Standing
610021,Pablo Casals Elementary School,60651,Neighborhood,Principal,TRUE,454,433,45,96,209,240,3,0,0,0,0,2,0,0,The largest demographic at CASALS is Hispanic.  This demographic makes up 52.9% of the student population.  The second greatest demographic is Black at 46%.,Generally accessible,TRUE,Half Day,Full Day,,,,TRUE,,,,,,41.904503,-87.714234,,,,Level 1+,Intensive Support
610383,Greater Lawndale High School For Social Justice,60623,Small,Principal,TRUE,297,288,61,65,44,249,2,0,1,0,0,1,0,0,The largest demographic at SOCIAL JUSTICE HS is Hispanic.  This demographic makes up 83.8% of the student population.  The second greatest demographic is Black at 14.8%.,Fully Accessible,TRUE,,Full Day,"French, Spanish, Spanish for Heritage Speakers",TRUE,FALSE,TRUE,,,,,,41.833507,-87.735299,15.6,56.6,87.5,Level 1,Good Standing
609693,George Westinghouse College Prep,60624,Selective enrollment,Principal,FALSE,1146,906,78,16,601,450,25,59,1,0,0,7,1,2,The largest demographic at WESTINGHOUSE HS is Black.  This demographic makes up 52.4% of the student population.  The second greatest demographic is Hispanic at 39.3%.,Fully Accessible,FALSE,,Full Day,"Chinese, French, Spanish",FALSE,FALSE,TRUE,,,TRUE,,,41.889977,-87.707332,20.7,76.7,97.6,Level 1+,Good Standing
400127,YCCS-Austin Career Education Center HS,60651,Charter,Director,FALSE,107,106,11,0,102,5,0,0,0,0,0,0,0,0,The largest demographic at YCCS - AUSTIN CAREER is Black.  This demographic makes up 95.3% of the student population.  The second greatest demographic is Hispanic at 4.7%.,No/unknown accessibility,FALSE,,,,,,,,,,,,41.894976,-87.760221,12.8,14.9,,Level 1+,Not Applicable
400083,UNO Charter School - Octavio Paz Campus,60608,Charter,Director,FALSE,381,377,40,196,20,358,1,0,1,0,0,1,0,0,The largest demographic at UNO - PAZ is Hispanic.  This demographic makes up 94% of the student population.  The second greatest demographic is Black at 5.2%.,No/unknown accessibility,TRUE,,Full Day,,,,TRUE,,,,,,41.850035,-87.692551,,,,Level 2+,Not Applicable
610513,Air Force Academy High School,60609,Military academy,Principal,FALSE,325,287,40,6,145,142,27,7,1,0,0,2,0,1,The largest demographic at AIR FORCE HS is Black.  This demographic makes up 44.6% of the student population.  The second greatest demographic is Hispanic at 43.7%.,Generally accessible,TRUE,,Full Day,Spanish,FALSE,FALSE,TRUE,,,,,,41.828145,-87.632757,18.8,61.5,86.1,Level 1,Good Standing
400120,UNO Charter - Near West Elementary,60707,Charter,Director,TRUE,572,520,53,236,22,542,6,0,2,0,0,0,0,0,The largest demographic at UNO - CLEMENTE is Hispanic.  This demographic makes up 94.8% of the student population.  The second greatest demographic is Black at 3.8%.,No/unknown accessibility,FALSE,,,,,,TRUE,,,,,,41.917952,-87.78783,,,,Level 2+,Not Applicable
610090,Phillip Murray Elementary Language Academy,60615,Magnet,Principal,FALSE,515,277,45,15,454,26,7,7,0,0,0,21,0,0,The largest demographic at MURRAY is Black.  This demographic makes up 88.2% of the student population.  The second greatest demographic is Hispanic at 5%.,Fully Accessible,FALSE,,Full Day,"Chinese, French, Japanese, Spanish",,,FALSE,,,,,,41.798535,-87.59334,,,,Level 1,Good Standing
610004,Countee Cullen Elementary School,60628,Neighborhood,Principal,TRUE,178,165,23,3,175,2,0,0,0,0,0,1,0,0,The largest demographic at CULLEN is Black.  This demographic makes up 98.3% of the student population.  The second greatest demographic is Hispanic at 1.1%.,No/unknown accessibility,TRUE,Half Day,Full Day,,,,TRUE,,,,,,41.700335,-87.611244,,,,Level 1+,Good Standing
400171,Foundations College Preparatory Charter School,60643,Charter,Director,FALSE,200,189,43,2,197,3,0,0,0,0,0,0,0,0,The largest demographic at FOUNDATIONS is Black.  This demographic makes up 98.5% of the student population.  The second greatest demographic is Hispanic at 1.5%.,Fully Accessible,TRUE,,,,,,TRUE,,,,,,41.694671,-87.653535,,,,Level 2+,Not Applicable
400175,Excel - Woodlawn HS,60649,Citywide-Option,Principal,FALSE,168,155,34,0,162,3,0,0,0,0,0,1,0,2,The largest demographic at CAMELOT - EXCEL SOUTHSHORE HS is Black.  This demographic makes up 96.4% of the student population.  The second greatest demographic is Hispanic at 1.8%.,No/unknown accessibility,FALSE,,,,,,,,,,,,41.759749,-87.556487,13.8,8.3,,Inability to Rate,Good Standing
609735,Edward Tilden Career Community Academy HS,60609,Neighborhood,Principal,TRUE,282,269,99,15,164,81,26,5,0,0,0,6,0,0,The largest demographic at TILDEN HS is Black.  This demographic makes up 58.2% of the student population.  The second greatest demographic is Hispanic at 28.7%.,Generally accessible,TRUE,,Full Day,Spanish,TRUE,FALSE,TRUE,,,TRUE,,,41.80751,-87.642966,14.5,31.7,50,Level 2,Intensive Support
609997,Oliver Wendell Holmes Elementary School,60621,Neighborhood,Principal,TRUE,202,198,30,2,195,5,0,0,0,0,0,2,0,0,The largest demographic at HOLMES is Black.  This demographic makes up 96.5% of the student population.  The second greatest demographic is Hispanic at 2.5%.,Generally accessible,TRUE,Full Day,Full Day,,,,TRUE,,,,,,41.793788,-87.649795,,,,Level 2,Intensive Support
610010,Friedrich L. Jahn Elementary of the Fine Arts,60657,Neighborhood,Principal,TRUE,346,209,69,60,43,201,74,7,0,0,0,18,2,1,The largest demographic at JAHN is Hispanic.  This demographic makes up 58.1% of the student population.  The second greatest demographic is White at 21.4%.,No/unknown accessibility,TRUE,Half Day,Full Day,,,,TRUE,TRUE,,,,,41.939247,-87.67581,,,,Level 2,Provisional Support
400021,Catalyst Elementary Charter School - Circle Rock,60644,Charter,Director,FALSE,518,472,68,0,501,12,0,1,0,0,0,2,0,2,The largest demographic at CATALYST - CIRCLE ROCK is Black.  This demographic makes up 96.7% of the student population.  The second greatest demographic is Hispanic at 2.3%.,Fully Accessible,TRUE,,Full Day,,,,TRUE,,,,,,41.882322,-87.765322,,,,Level 1,Not Applicable
400097,Noble - Chicago Bulls College Prep,60612,Charter,Director,TRUE,1124,991,161,95,343,771,3,3,0,0,0,3,1,0,The largest demographic at NOBLE - BULLS HS is Hispanic.  This demographic makes up 68.6% of the student population.  The second greatest demographic is Black at 30.5%.,Generally accessible,TRUE,,,"French, Spanish",FALSE,FALSE,TRUE,,,,,,41.878809,-87.678195,21.7,84.4,71.5,Level 1+,Not Applicable
400089,UNO Charter School - Officer Donald J. Marquez,60632,Charter,Director,FALSE,573,551,56,330,3,567,0,0,3,0,0,0,0,0,The largest demographic at UNO - MARQUEZ is Hispanic.  This demographic makes up 99% of the student population.  The second greatest demographic is Black at 0.5%.,Generally accessible,TRUE,,Full Day,,,,TRUE,,,,,,41.808309,-87.697394,,,,Level 1,Not Applicable
610099,Norwood Park Elementary School,60631,Neighborhood,Principal,TRUE,414,61,62,24,6,128,245,20,3,0,0,12,0,0,The largest demographic at NORWOOD PARK is White.  This demographic makes up 59.2% of the student population.  The second greatest demographic is Hispanic at 30.9%.,Generally accessible,FALSE,Half Day,Full Day,,,,FALSE,,,TRUE,,,41.988153,-87.802979,,,,Level 1+,Good Standing
609805,Scott Joplin Elementary School,60620,Neighborhood,Principal,TRUE,413,398,64,1,407,2,0,1,0,0,0,0,1,2,The largest demographic at JOPLIN is Black.  This demographic makes up 98.5% of the student population.  The second greatest demographic is Other at 0.7%.,No/unknown accessibility,TRUE,Half Day,Full Day,,,,TRUE,,,,,,41.749339,-87.669366,,,,Level 1,Good Standing
400075,University of Chicago - Donoghue,60653,Charter,Director,TRUE,542,441,23,5,532,6,0,0,0,0,0,2,0,2,The largest demographic at U OF C - DONOGHUE is Black.  This demographic makes up 98.2% of the student population.  The second greatest demographic is Hispanic at 1.1%.,Generally accessible,TRUE,Full Day,Full Day,,,,TRUE,,,,,,41.827726,-87.608501,,,,Level 2+,Not Applicable
609850,Horace Greeley Elementary School,60613,Neighborhood,Principal,TRUE,609,509,62,154,109,418,57,14,4,0,0,7,0,0,The largest demographic at GREELEY is Hispanic.  This demographic makes up 68.6% of the student population.  The second greatest demographic is Black at 17.9%.,Generally accessible,TRUE,Full and Half Day,Full Day,"Polish, Spanish, Spanish for Heritage Speakers",TRUE,,TRUE,,,,,,41.95281,-87.65098,,,,Level 1+,Good Standing
610357,Spry Community Links High School,60623,Neighborhood,Principal,FALSE,147,142,29,36,1,143,2,0,1,0,0,0,0,0,The largest demographic at SPRY HS is Hispanic.  This demographic makes up 97.3% of the student population.  The second greatest demographic is White at 1.4%.,No/unknown accessibility,TRUE,,Full Day,Spanish,TRUE,FALSE,TRUE,,,,,,41.847762,-87.698946,15.7,47.2,91.2,Level 2+,Good Standing
400101,UNO Charter School - Sandra Cisneros,60632,Charter,Director,FALSE,543,508,43,247,2,536,2,1,2,0,0,0,0,0,The largest demographic at UNO - CISNEROS is Hispanic.  This demographic makes up 98.7% of the student population.  The second greatest demographic is White at 0.4%.,No/unknown accessibility,FALSE,,,,,,TRUE,,,,,,41.822884,-87.693996,,,,Level 1+,Not Applicable
610568,Pathways in Education- Avondale,60618,Citywide-Option,Principal,FALSE,259,222,32,27,19,208,21,5,3,0,0,2,0,1,The largest demographic at PATHWAYS - AVONDALE HS is Hispanic.  This demographic makes up 80.3% of the student population.  The second greatest demographic is White at 8.1%.,No/unknown accessibility,FALSE,,,,,,,,,,,,41.939433,-87.705206,14.4,16.7,,Level 2+,Not Applicable
400150,YCCS-Chatham AcademyHS,60619,Charter,Director,FALSE,185,181,21,0,183,0,0,0,0,0,0,2,0,0,The largest demographic at YCCS - CHATHAM is Black.  This demographic makes up 98.9% of the student population.  The second greatest demographic is Other at 1.1%.,No/unknown accessibility,FALSE,,,,,,,,,,,,41.730131,-87.60698,13.3,19.4,,Level 2,Not Applicable
609711,William Rainey Harper High School,60636,Neighborhood,Principal,TRUE,158,158,40,1,150,6,0,0,0,0,0,2,0,0,The largest demographic at HARPER HS is Black.  This demographic makes up 94.9% of the student population.  The second greatest demographic is Hispanic at 3.8%.,Generally accessible,TRUE,,Full Day,Spanish,FALSE,FALSE,TRUE,,,,,,41.775124,-87.669089,14.6,31.9,62.1,Level 2,Intensive Support
400123,YCCS- Academy of Scholastic Achievement HS,60644,Charter,Director,FALSE,214,206,39,0,208,6,0,0,0,0,0,0,0,0,The largest demographic at YCCS - SCHOLASTIC ACHIEVEMENT is Black.  This demographic makes up 97.2% of the student population.  The second greatest demographic is Hispanic at 2.8%.,No/unknown accessibility,FALSE,,,,,,,,,,,,41.880447,-87.742539,13.3,8.9,,Level 1,Not Applicable
610178,Theophilus Schmid Elementary School,60628,Neighborhood,Principal,TRUE,208,203,39,0,202,5,0,0,1,0,0,0,0,0,The largest demographic at SCHMID is Black.  This demographic makes up 97.1% of the student population.  The second greatest demographic is Hispanic at 2.4%.,Generally accessible,TRUE,Half Day,Full Day,,,,TRUE,TRUE,,,,,41.716989,-87.596932,,,,Level 2+,Intensive Support
610092,Henry H Nash Elementary School,60644,Neighborhood,Principal,TRUE,323,319,31,4,306,11,2,0,0,0,0,4,0,0,The largest demographic at NASH is Black.  This demographic makes up 94.7% of the student population.  The second greatest demographic is Hispanic at 3.4%.,No/unknown accessibility,TRUE,Half Day,Full Day,,,,TRUE,,,,,,41.89181,-87.747936,,,,Level 1,Good Standing
610584,Camelot Safe Garfield Elementary,60624,Citywide-Option,Principal,FALSE,10,10,5,0,8,2,0,0,0,0,0,0,0,0,The largest demographic at CAMELOT SAFE - GARFIELD ES is Black.  This demographic makes up 80% of the student population.  The second greatest demographic is Hispanic at 20%.,No/unknown accessibility,FALSE,,,,,,,,,,,,41.883606,-87.739484,,,,Level 2+,Good Standing
610225,John Whistler Elementary School,60643,Neighborhood,Principal,TRUE,314,291,54,0,311,1,1,0,0,0,0,1,0,0,The largest demographic at WHISTLER is Black.  This demographic makes up 99% of the student population.  The second greatest demographic is White at 0.3%.,Generally accessible,TRUE,Half Day,Full Day,,,,TRUE,,,TRUE,,,41.683907,-87.655384,,,,Level 1+,Good Standing
610155,Sauganash Elementary School,60646,Neighborhood,Principal,TRUE,587,167,56,99,15,138,297,121,0,0,0,15,1,0,The largest demographic at SAUGANASH is White.  This demographic makes up 50.6% of the student population.  The second greatest demographic is Hispanic at 23.5%.,Fully Accessible,TRUE,,Full Day,,TRUE,,FALSE,,,,,,41.991169,-87.745951,,,,Level 1+,Good Standing
400151,L.E.A.R.N. Charter School - 7th Campus,60612,Charter,Director,FALSE,345,319,29,5,328,15,1,1,0,0,0,0,0,0,The largest demographic at LEARN - 7 is Black.  This demographic makes up 95.1% of the student population.  The second greatest demographic is Hispanic at 4.3%.,No/unknown accessibility,FALSE,,,,,,,,,,,,41.88741,-87.701397,,,,Level 2,Not Applicable
609861,Henry R Clissold Elementary School,60643,Neighborhood,Principal,TRUE,519,234,84,8,327,38,137,7,1,0,0,7,1,1,The largest demographic at CLISSOLD is Black.  This demographic makes up 63% of the student population.  The second greatest demographic is White at 26.4%.,No/unknown accessibility,TRUE,,Full Day,,,,FALSE,,,TRUE,,,41.693026,-87.680897,,,,Level 1,Good Standing
610521,Sir Miles Davis Magnet Elementary Academy,60636,Magnet,Principal,FALSE,253,244,32,9,235,17,0,0,0,0,0,1,0,0,The largest demographic at DAVIS M is Black.  This demographic makes up 92.9% of the student population.  The second greatest demographic is Hispanic at 6.7%.,Fully Accessible,TRUE,,Full Day,,,,TRUE,,,,,,41.771221,-87.66653,,,,Level 1+,Good Standing
609833,Charles P Caldwell Academy of Math & Science ES,60617,Neighborhood,Principal,TRUE,258,250,38,3,254,1,1,0,0,0,0,2,0,0,The largest demographic at CALDWELL is Black.  This demographic makes up 98.4% of the student population.  The second greatest demographic is Other at 0.8%.,No/unknown accessibility,TRUE,Full Day,Full Day,,,,TRUE,,,,,,41.739226,-87.580729,,,,Level 2+,Good Standing
610212,Albany Park Multicultural Academy,60625,Neighborhood,Principal,TRUE,278,266,42,54,13,216,17,28,0,0,0,4,0,0,The largest demographic at ALBANY PARK is Hispanic.  This demographic makes up 77.7% of the student population.  The second greatest demographic is Asian at 10.1%.,Fully Accessible,TRUE,,Full Day,,TRUE,,TRUE,,,,,,41.971504,-87.710609,,,,Level 1+,Good Standing
610207,John H Vanderpoel Elementary Magnet School,60643,Magnet,Principal,FALSE,291,198,32,0,287,4,0,0,0,0,0,0,0,0,The largest demographic at VANDERPOEL is Black.  This demographic makes up 98.6% of the student population.  The second greatest demographic is Hispanic at 1.4%.,Generally accessible,TRUE,,Full Day,,,,TRUE,,,,,,41.720817,-87.665559,,,,Level 1,Good Standing
400086,Urban Prep Academy for Young Men - Englewood,60621,Charter,Director,FALSE,321,281,76,1,317,3,0,0,0,0,0,1,0,0,The largest demographic at URBAN PREP - ENGLEWOOD HS is Black.  This demographic makes up 98.8% of the student population.  The second greatest demographic is Hispanic at 0.9%.,Generally accessible,TRUE,,,Spanish,FALSE,FALSE,TRUE,,,,,,41.781498,-87.634357,16.7,67.1,71.3,Level 2+,Not Applicable
400149,UNO Charter School - Soccer Academy High School,60632,Charter,Director,FALSE,622,594,90,156,9,608,4,1,0,0,0,0,0,0,The largest demographic at UNO - SOCCER HS is Hispanic.  This demographic makes up 97.7% of the student population.  The second greatest demographic is Black at 1.4%.,No/unknown accessibility,FALSE,,,,,,,,,,,,41.801762,-87.711025,16.6,,,Level 2+,Not Applicable
400153,UNO Charter School - Brighton Park,60632,Charter,Director,FALSE,576,555,65,304,4,568,2,0,0,0,0,2,0,0,The largest demographic at UNO - BRIGHTON PARK is Hispanic.  This demographic makes up 98.6% of the student population.  The second greatest demographic is Black at 0.7%.,No/unknown accessibility,FALSE,,,,,,,,,,,,41.813109,-87.693238,,,,Level 1,Not Applicable
400064,Perspectives - Rodney D. Joslin,60616,Charter,Director,FALSE,392,331,73,10,327,50,4,3,0,0,0,6,2,0,The largest demographic at PERSPECTIVES - JOSLIN HS is Black.  This demographic makes up 83.4% of the student population.  The second greatest demographic is Hispanic at 12.8%.,Fully Accessible,TRUE,,,Spanish,FALSE,FALSE,TRUE,,,,,,41.855999,-87.628531,17.5,81.6,85.7,Level 1,Not Applicable
400159,Christopher House Charter School,60639,Charter,Director,FALSE,269,249,35,129,9,255,4,1,0,0,0,0,0,0,The largest demographic at CHRISTOPHER HOUSE is Hispanic.  This demographic makes up 94.8% of the student population.  The second greatest demographic is Black at 3.3%.,No/unknown accessibility,FALSE,,,,,,,,,,,,41.922181,-87.757522,,,,Level 1,Not Applicable
609977,Woodlawn Community Elementary School,60637,Small,Principal,FALSE,193,185,12,2,190,3,0,0,0,0,0,0,0,0,The largest demographic at WOODLAWN is Black.  This demographic makes up 98.4% of the student population.  The second greatest demographic is Hispanic at 1.6%.,Fully Accessible,TRUE,Half Day,Full Day,,,,TRUE,,,,,,41.773366,-87.594392,,,,Level 1,Good Standing
400022,Chicago High School for the Arts,60622,Contract,Principal,FALSE,603,323,43,5,271,171,105,10,1,0,0,21,2,22,The largest demographic at CHICAGO ARTS HS is Black.  This demographic makes up 44.9% of the student population.  The second greatest demographic is Hispanic at 28.4%.,Generally accessible,FALSE,,,"French, Spanish",FALSE,FALSE,FALSE,,,,,,41.899377,-87.694945,19.4,79.6,81.1,Level 1+,Good Standing
610078,Inter-American Elementary Magnet School,60613,Magnet,Principal,FALSE,709,371,69,226,21,572,75,4,2,0,0,8,0,27,The largest demographic at INTER-AMERICAN is Hispanic.  This demographic makes up 80.7% of the student population.  The second greatest demographic is White at 10.6%.,Generally accessible,FALSE,Half Day,Full Day,"Spanish, Spanish for Heritage Speakers",TRUE,,FALSE,,,,,,41.949003,-87.651573,,,,Level 1+,Good Standing
400139,YCCS-Sullivan House Alternative HS,60617,Charter,Director,FALSE,333,333,70,0,315,16,0,0,2,0,0,0,0,0,The largest demographic at YCCS - SULLIVAN is Black.  This demographic makes up 94.6% of the student population.  The second greatest demographic is Hispanic at 4.8%.,No/unknown accessibility,FALSE,,,,,,,,,,,,41.746287,-87.578492,13.1,7.4,,Level 1+,Not Applicable
609851,Thomas Chalmers Specialty Elementary School,60608,Neighborhood,Principal,TRUE,380,373,48,3,364,10,2,0,0,0,0,4,0,0,The largest demographic at CHALMERS is Black.  This demographic makes up 95.8% of the student population.  The second greatest demographic is Hispanic at 2.6%.,Generally accessible,TRUE,Half Day,Full Day,,,,TRUE,,,,,,41.866435,-87.695259,,,,Level 1,Intensive Support
610093,Jane A Neil Elementary School,60619,Neighborhood,Principal,TRUE,283,266,129,4,276,5,2,0,0,0,0,0,0,0,The largest demographic at NEIL is Black.  This demographic makes up 97.5% of the student population.  The second greatest demographic is Hispanic at 1.8%.,Generally accessible,TRUE,Half Day,Full Day,,,,TRUE,,,TRUE,,TRUE,41.738407,-87.620933,,,,Inability to Rate,Intensive Support
400068,Plato Learning Academy,60644,Contract,Principal,FALSE,432,417,43,1,424,7,1,0,0,0,0,0,0,0,The largest demographic at PLATO is Black.  This demographic makes up 98.1% of the student population.  The second greatest demographic is Hispanic at 1.6%.,No/unknown accessibility,TRUE,,Full Day,,,,TRUE,,,,,,41.87276,-87.763337,,,,Level 2,Intensive Support
610153,William H Ryder Math & Science Specialty ES,60620,Neighborhood,Principal,TRUE,410,399,120,2,409,1,0,0,0,0,0,0,0,0,The largest demographic at RYDER is Black.  This demographic makes up 99.8% of the student population.  The second greatest demographic is Hispanic at 0.2%.,No/unknown accessibility,TRUE,Half Day,Full Day,,,,TRUE,,TRUE,TRUE,,,41.735379,-87.638843,,,,Level 1,Good Standing
400102,Urban Prep Charter Academy for Young Men - West,60608,Charter,Director,FALSE,267,228,61,0,264,2,0,0,0,0,0,1,0,0,The largest demographic at URBAN PREP - WEST HS is Black.  This demographic makes up 98.9% of the student population.  The second greatest demographic is Hispanic at 0.7%.,Generally accessible,TRUE,,,Spanish,FALSE,FALSE,TRUE,,,,,,41.86254,-87.660107,16.6,74.6,64.1,Level 2,Not Applicable
610558,Sarah E. Goode STEM Academy,60652,Citywide-Option,Principal,FALSE,847,716,150,40,472,359,6,2,3,0,0,5,0,0,The largest demographic at GOODE HS is Black.  This demographic makes up 55.7% of the student population.  The second greatest demographic is Hispanic at 42.4%.,Fully Accessible,TRUE,,Full Day,Spanish,TRUE,FALSE,TRUE,,,,,,41.75375,-87.707345,16.6,,,Level 1+,Good Standing
610176,John D Shoop Math-Science Technical Academy ES,60643,Neighborhood,Principal,TRUE,463,448,62,1,449,11,1,0,0,0,0,2,0,0,The largest demographic at SHOOP is Black.  This demographic makes up 97% of the student population.  The second greatest demographic is Hispanic at 2.4%.,Generally accessible,TRUE,Half Day,Full Day,,,,TRUE,,,,,,41.690919,-87.658669,,,,Level 1,Good Standing
609682,Ellen H Richards Career Academy High School,60609,Neighborhood,Principal,TRUE,235,199,63,59,102,131,1,0,0,0,0,1,0,0,The largest demographic at RICHARDS HS is Hispanic.  This demographic makes up 55.7% of the student population.  The second greatest demographic is Black at 43.4%.,Generally accessible,TRUE,,Full Day,"Spanish, Spanish for Heritage Speakers",TRUE,FALSE,TRUE,,,,,,41.802881,-87.662278,14.6,47.4,71.7,Level 2,Intensive Support
610130,John T Pirie Fine Arts & Academic Center ES,60619,Neighborhood,Principal,TRUE,291,268,36,3,285,3,0,0,0,0,0,3,0,0,The largest demographic at PIRIE is Black.  This demographic makes up 97.9% of the student population.  The second greatest demographic is Hispanic at 1%.,No/unknown accessibility,TRUE,Half Day,Full Day,,,,TRUE,,,,,,41.74034,-87.607891,,,,Level 2+,Good Standing
610315,Edward White Elementary Career Academy,60643,Neighborhood,Principal,TRUE,174,142,26,0,171,2,1,0,0,0,0,0,0,0,The largest demographic at WHITE is Black.  This demographic makes up 98.3% of the student population.  The second greatest demographic is Hispanic at 1.1%.,No/unknown accessibility,TRUE,Half Day,Full Day,,,,TRUE,,,,,,41.672309,-87.650539,,,,Level 2+,Intensive Support
609955,Walter Q Gresham Elementary School,60620,Neighborhood,Principal,TRUE,326,321,38,1,324,2,0,0,0,0,0,0,0,0,The largest demographic at GRESHAM is Black.  This demographic makes up 99.4% of the student population.  The second greatest demographic is Hispanic at 0.6%.,Fully Accessible,TRUE,Half Day,Full Day,,,,TRUE,,,,,,41.73892,-87.645025,,,,Level 1+,Intensive Support
610047,James Madison Elementary School,60619,Neighborhood,Principal,TRUE,242,239,29,7,236,5,1,0,0,0,0,0,0,0,The largest demographic at MADISON is Black.  This demographic makes up 97.5% of the student population.  The second greatest demographic is Hispanic at 2.1%.,No/unknown accessibility,TRUE,Half Day,Full Day,,,,TRUE,,,,,,41.759548,-87.590712,,,,Level 2,Provisional Support
610032,Wendell E Green Elementary School,60643,Neighborhood,Principal,TRUE,367,333,60,1,358,2,0,1,0,0,0,5,1,0,The largest demographic at GREEN is Black.  This demographic makes up 97.5% of the student population.  The second greatest demographic is Other at 1.7%.,No/unknown accessibility,TRUE,Half Day,Full Day,,,,TRUE,,,TRUE,,,41.719292,-87.6525,,,,Level 1+,Good Standing
610158,Harriet E Sayre Elementary Language Academy,60707,Neighborhood,Principal,TRUE,456,323,59,58,181,194,46,7,3,0,0,24,1,0,The largest demographic at SAYRE is Hispanic.  This demographic makes up 42.5% of the student population.  The second greatest demographic is Black at 39.7%.,Generally accessible,TRUE,Half Day,Full Day,,,,TRUE,,,,,,41.914151,-87.798721,,,,Level 2,Provisional Support
610354,North River Elementary School,60625,Small,Principal,FALSE,332,297,76,174,6,298,16,3,1,0,0,3,4,1,The largest demographic at NORTH RIVER is Hispanic.  This demographic makes up 89.8% of the student population.  The second greatest demographic is White at 4.8%.,Generally accessible,TRUE,Half Day,Full Day,Spanish,TRUE,FALSE,TRUE,TRUE,TRUE,,,,41.961721,-87.707151,,,,Level 1,Good Standing
610548,STEM Magnet Academy,60607,Magnet,Principal,FALSE,459,158,28,41,155,125,69,96,0,0,0,9,4,1,The largest demographic at STEM is Black.  This demographic makes up 33.8% of the student population.  The second greatest demographic is Hispanic at 27.2%.,No/unknown accessibility,TRUE,,Full Day,,,,FALSE,,,,,,41.868576,-87.664969,,,,Level 1+,Good Standing
610055,Michael Faraday Elementary School,60624,Neighborhood,Principal,TRUE,305,301,52,1,302,3,0,0,0,0,0,0,0,0,The largest demographic at FARADAY is Black.  This demographic makes up 99% of the student population.  The second greatest demographic is Hispanic at 1%.,Generally accessible,TRUE,Full Day,Full Day,,,,TRUE,,,,,,41.879714,-87.708092,,,,Level 1,Good Standing
400096,Rowe Elementary Charter School,60642,Charter,Director,FALSE,933,775,109,219,156,752,18,1,1,0,0,5,0,0,The largest demographic at ROWE is Hispanic.  This demographic makes up 80.6% of the student population.  The second greatest demographic is Black at 16.7%.,Generally accessible,TRUE,,Full Day,,,,TRUE,,,,,,41.907797,-87.664072,,,,Level 1,Not Applicable
609761,George H Corliss High School,60628,Neighborhood,Principal,FALSE,371,357,109,0,368,2,0,0,1,0,0,0,0,0,The largest demographic at CORLISS HS is Black.  This demographic makes up 99.2% of the student population.  The second greatest demographic is Hispanic at 0.5%.,Fully Accessible,TRUE,,Full Day,Spanish,FALSE,FALSE,TRUE,,,TRUE,,,41.70666,-87.601216,14.3,34.4,62.6,Level 2,Intensive Support
400125,"YCCS-ASPIRA,Antonia Pantoja Alternative HS",60641,Charter,Director,FALSE,169,168,25,18,7,157,2,1,2,0,0,0,0,0,The largest demographic at YCCS - ASPIRA PANTOJA is Hispanic.  This demographic makes up 92.9% of the student population.  The second greatest demographic is Black at 4.1%.,No/unknown accessibility,FALSE,,,,,,,,,,,,41.938187,-87.727137,14.1,4.2,,Level 2+,Not Applicable
610586,Southeast Area Elementary School,60617,Neighborhood,Principal,FALSE,443,409,60,124,9,423,7,0,2,0,0,0,0,2,The largest demographic at SOUTHEAST is Hispanic.  This demographic makes up 95.5% of the student population.  The second greatest demographic is Black at 2%.,No/unknown accessibility,FALSE,,,,,,,,,,,,41.704859,-87.527985,,,,Inability to Rate,
609725,Morgan Park High School,60643,Neighborhood,Principal,TRUE,1378,1200,136,3,1343,16,7,1,0,0,0,10,1,0,The largest demographic at MORGAN PARK HS is Black.  This demographic makes up 97.5% of the student population.  The second greatest demographic is Hispanic at 1.2%.,Generally accessible,FALSE,,Full Day,"French, Spanish",FALSE,FALSE,TRUE,,,TRUE,,,41.692035,-87.665658,17.3,66.8,79.6,Level 2+,Good Standing
609939,Frank L Gillespie Elementary School,60619,Neighborhood,Principal,TRUE,522,500,78,1,512,6,2,0,0,0,0,1,0,1,The largest demographic at GILLESPIE is Black.  This demographic makes up 98.1% of the student population.  The second greatest demographic is Hispanic at 1.1%.,No/unknown accessibility,TRUE,Full and Half Day,Full Day,,,,TRUE,,,TRUE,,,41.725332,-87.623719,,,,Level 2+,Good Standing
400118,Noble - DRW College Prep,60624,Charter,Director,FALSE,529,502,131,6,493,32,2,0,0,0,0,2,0,0,The largest demographic at NOBLE - DRW HS is Black.  This demographic makes up 93.2% of the student population.  The second greatest demographic is Hispanic at 6%.,No/unknown accessibility,TRUE,,,,FALSE,FALSE,TRUE,,,,,,41.869328,-87.711654,18.6,,,Level 1,Not Applicable
400087,Young Women's Leadership Charter School,60616,Charter,Director,FALSE,245,226,74,0,228,14,2,0,0,0,0,1,0,0,The largest demographic at YOUNG WOMENS HS is Black.  This demographic makes up 93.1% of the student population.  The second greatest demographic is Hispanic at 5.7%.,Generally accessible,TRUE,,,Spanish,FALSE,FALSE,TRUE,,,,,,41.844544,-87.618724,15.7,61.4,66.7,Level 2+,Not Applicable
400028,CICS - Prairie,60628,Charter,Director,FALSE,418,391,44,105,204,203,0,1,0,0,0,5,1,4,The largest demographic at CICS - PRAIRIE is Black.  This demographic makes up 48.8% of the student population.  The second greatest demographic is Hispanic at 48.6%.,No/unknown accessibility,TRUE,,Full Day,,,,TRUE,,,,,,41.684433,-87.616888,,,,Level 2+,Not Applicable
400178,Moving Everest Charter School,60644,Charter,Director,FALSE,269,246,26,1,254,5,2,0,0,0,0,1,0,7,The largest demographic at MOVING EVEREST is Black.  This demographic makes up 94.4% of the student population.  The second greatest demographic is Other at 3%.,No/unknown accessibility,FALSE,,,,,,,,,,,,41.888259,-87.755281,,,,Inability to Rate,Not Applicable
610197,Mancel Talcott Elementary School,60622,Neighborhood,Principal,TRUE,519,420,97,205,39,426,39,1,1,0,0,12,0,1,The largest demographic at TALCOTT is Hispanic.  This demographic makes up 82.1% of the student population.  The second greatest demographic is White at 7.5%.,Generally accessible,TRUE,Full and Half Day,Full Day,Spanish,TRUE,,TRUE,TRUE,,TRUE,,,41.892405,-87.673723,,,,Level 1+,Good Standing
400180,KIPP One Academy,60624,Charter,Director,FALSE,181,178,18,6,154,26,1,0,0,0,0,0,0,0,The largest demographic at KIPP ONE is Black.  This demographic makes up 85.1% of the student population.  The second greatest demographic is Hispanic at 14.4%.,No/unknown accessibility,TRUE,,Full Day,,TRUE,,TRUE,,,,,,41.893805,-87.726615,,,,Inability to Rate,
610152,Martha Ruggles Elementary School,60619,Neighborhood,Principal,TRUE,415,411,46,0,408,6,0,0,0,0,0,1,0,0,The largest demographic at RUGGLES is Black.  This demographic makes up 98.3% of the student population.  The second greatest demographic is Hispanic at 1.4%.,No/unknown accessibility,TRUE,Half Day,Full Day,,,,TRUE,,,,,,41.751946,-87.618066,,,,Level 1,Good Standing
610295,Thomas J Higgins Elementary Community Academy,60643,Neighborhood,Principal,TRUE,271,243,32,1,265,5,0,0,0,0,0,1,0,0,The largest demographic at HIGGINS is Black.  This demographic makes up 97.8% of the student population.  The second greatest demographic is Hispanic at 1.8%.,No/unknown accessibility,TRUE,Half Day,Full Day,,,,TRUE,,,,,,41.681031,-87.646994,,,,Level 1,Good Standing
610043,Joseph Lovett Elementary School,60639,Neighborhood,Principal,TRUE,394,365,42,24,330,61,1,0,0,0,0,2,0,0,The largest demographic at LOVETT is Black.  This demographic makes up 83.8% of the student population.  The second greatest demographic is Hispanic at 15.5%.,No/unknown accessibility,TRUE,Full and Half Day,Full Day,,TRUE,,TRUE,,,,,,41.912718,-87.783919,,,,Level 1+,Good Standing
610128,Marcus Moziah Garvey Elementary School,60643,Neighborhood,Principal,TRUE,250,245,13,0,246,2,0,0,0,0,0,2,0,0,The largest demographic at GARVEY is Black.  This demographic makes up 98.4% of the student population.  The second greatest demographic is Hispanic at 0.8%.,Generally accessible,TRUE,Half Day,Full Day,,,,TRUE,,,,,,41.706603,-87.647577,,,,Level 1,Good Standing
610340,Chicago Academy High School,60634,Small,Principal,FALSE,540,435,98,38,79,316,112,25,1,0,0,6,1,0,The largest demographic at CHICAGO ACADEMY HS is Hispanic.  This demographic makes up 58.5% of the student population.  The second greatest demographic is White at 20.7%.,Fully Accessible,FALSE,,Full Day,Spanish,FALSE,FALSE,TRUE,,,,,,41.943054,-87.776847,18.5,80.4,85.4,Level 1,Good Standing
610391,Robert Lindblom Math & Science Academy HS,60636,Selective enrollment,Principal,FALSE,1288,851,71,16,923,313,24,15,3,0,0,10,0,0,The largest demographic at LINDBLOM HS is Black.  This demographic makes up 71.7% of the student population.  The second greatest demographic is Hispanic at 24.3%.,Generally accessible,FALSE,Full Day,Full Day,"Arabic, Chinese",FALSE,FALSE,TRUE,,,TRUE,,,41.782041,-87.671662,22.9,83.6,89.2,Level 1+,Good Standing
609901,Edgebrook Elementary School,60646,Neighborhood,Principal,TRUE,515,47,51,24,10,79,340,51,2,0,0,28,5,0,The largest demographic at EDGEBROOK is White.  This demographic makes up 66% of the student population.  The second greatest demographic is Hispanic at 15.3%.,No/unknown accessibility,TRUE,,Full Day,,,,FALSE,,,,,,41.999437,-87.76184,,,,Level 1+,Good Standing
400033,CICS - Longwood,60643,Charter,Director,FALSE,1321,1207,214,10,1310,8,1,0,0,0,0,1,1,0,The largest demographic at CICS - LONGWOOD is Black.  This demographic makes up 99.2% of the student population.  The second greatest demographic is Hispanic at 0.6%.,No/unknown accessibility,TRUE,,,,FALSE,FALSE,TRUE,,,,,,41.721221,-87.655768,15.4,64.9,82.6,Level 2,Not Applicable
400045,Kwame Nkrumah Academy Charter School,60628,Charter,Director,FALSE,212,183,28,1,211,1,0,0,0,0,0,0,0,0,The largest demographic at NKRUMAH is Black.  This demographic makes up 99.5% of the student population.  The second greatest demographic is Hispanic at 0.5%.,Generally accessible,TRUE,,Full Day,,,,TRUE,,,,,,41.69804,-87.631058,,,,Level 2+,Not Applicable
610587,Walter Henri Dyett High School for the Arts,60615,Neighborhood,Principal,FALSE,149,131,21,1,145,2,1,0,0,0,0,1,0,0,The largest demographic at DYETT ARTS HS is Black.  This demographic makes up 97.3% of the student population.  The second greatest demographic is Hispanic at 1.3%.,No/unknown accessibility,FALSE,,,,,,,,,,,,41.801204,-87.612239,,,,Inability to Rate,
610298,Lenart Elementary Regional Gifted Center,60620,Regional gifted center,Principal,FALSE,292,88,14,6,171,19,37,46,2,0,0,14,3,0,The largest demographic at LENART is Black.  This demographic makes up 58.6% of the student population.  The second greatest demographic is Asian at 15.8%.,Generally accessible,FALSE,Half Day,Full Day,,,,FALSE,,,,,,41.747186,-87.62804,,,,Level 1+,Good Standing
610256,Jackie Robinson Elementary School,60653,Neighborhood,Principal,TRUE,130,126,12,1,130,0,0,0,0,0,0,0,0,0,The largest demographic at ROBINSON is Black.  This demographic makes up 100% of the student population.,No/unknown accessibility,TRUE,Full Day,Full Day,,,,TRUE,,,,,,41.817349,-87.599067,,,,Level 2,Intensive Support
610106,Brian Piccolo Elementary Specialty School,60651,Neighborhood,Principal,TRUE,581,580,87,141,315,251,5,0,1,0,0,7,1,1,The largest demographic at PICCOLO is Black.  This demographic makes up 54.2% of the student population.  The second greatest demographic is Hispanic at 43.2%.,Generally accessible,TRUE,Full and Half Day,Full Day,,TRUE,,TRUE,TRUE,,,,,41.90014,-87.731261,,,,Level 1+,Intensive Support
610037,Arthur A Libby Elementary School,60609,Neighborhood,Principal,TRUE,360,352,79,49,270,86,0,0,0,0,0,4,0,0,The largest demographic at LIBBY is Black.  This demographic makes up 75% of the student population.  The second greatest demographic is Hispanic at 23.9%.,No/unknown accessibility,TRUE,,Full Day,,TRUE,,TRUE,,,TRUE,,,41.797685,-87.659933,,,,Level 1,Provisional Support
400023,CICS - Avalon/South Shore,60619,Charter,Director,FALSE,495,450,49,7,482,6,0,1,1,0,0,3,0,2,The largest demographic at CICS - AVALON/SOUTH SHORE is Black.  This demographic makes up 97.4% of the student population.  The second greatest demographic is Hispanic at 1.2%.,Generally accessible,TRUE,,Full Day,,,,TRUE,,,,,,41.743179,-87.587928,,,,Level 1+,Not Applicable
610110,Ida B Wells Preparatory Elementary Academy,60653,Small,Principal,TRUE,386,374,21,2,363,5,0,0,1,0,0,2,0,15,The largest demographic at WELLS ES is Black.  This demographic makes up 94% of the student population.  The second greatest demographic is Other at 4.4%.,Generally accessible,TRUE,Full Day,Full Day,Spanish,TRUE,,TRUE,,,,,,41.827355,-87.61978,,,,Level 2+,Good Standing
610529,Ogden International High School,60642,Neighborhood,Principal,FALSE,719,371,86,40,250,239,169,37,1,0,0,20,1,2,The largest demographic at OGDEN HS is Black.  This demographic makes up 34.8% of the student population.  The second greatest demographic is Hispanic at 33.2%.,Generally accessible,FALSE,,Full Day,"French, Spanish",FALSE,FALSE,TRUE,,,,TRUE,,41.893548,-87.659405,19.7,72.6,83.6,Level 1,Good Standing
400035,Chicago Math and Science Academy Charter School,60626,Charter,Director,FALSE,593,536,56,71,179,318,18,66,2,0,0,10,0,0,The largest demographic at CHICAGO MATH & SCIENCE HS is Hispanic.  This demographic makes up 53.6% of the student population.  The second greatest demographic is Black at 30.2%.,Fully Accessible,TRUE,,,"Spanish, Turkish",TRUE,FALSE,TRUE,,,,,,42.013031,-87.674818,20.8,72,85.2,Level 1+,Not Applicable
400066,Perspectives - Math and Science Academy,60653,Charter,Director,FALSE,472,430,89,4,455,13,1,2,0,0,0,1,0,0,The largest demographic at PERSPECTIVES - MATH & SCI HS is Black.  This demographic makes up 96.4% of the student population.  The second greatest demographic is Hispanic at 2.8%.,Generally accessible,TRUE,,,Chinese,FALSE,FALSE,TRUE,,,,,,41.827784,-87.624788,17.3,62.3,78.1,Level 1,Not Applicable
400170,Noble - The Noble Academy,60610,Charter,Director,FALSE,346,291,44,23,156,158,9,10,3,0,0,7,0,3,The largest demographic at NOBLE - ACADEMY HS is Hispanic.  This demographic makes up 45.7% of the student population.  The second greatest demographic is Black at 45.1%.,No/unknown accessibility,FALSE,,,,,,,,,,,,41.906879,-87.645577,,,,Level 1,Not Applicable
610012,Edward Jenner Elementary Academy of the Arts,60610,Neighborhood,Principal,TRUE,239,238,41,0,234,3,0,1,0,0,0,1,0,0,The largest demographic at JENNER is Black.  This demographic makes up 97.9% of the student population.  The second greatest demographic is Hispanic at 1.3%.,Fully Accessible,TRUE,Full and Half Day,Full Day,,,,TRUE,,,,,,41.902055,-87.641056,,,,Level 2+,Intensive Support
610125,Irma C Ruiz Elementary School,60608,Neighborhood,Principal,TRUE,761,710,91,228,6,727,19,1,4,0,0,1,3,0,The largest demographic at RUIZ is Hispanic.  This demographic makes up 95.5% of the student population.  The second greatest demographic is White at 2.5%.,Fully Accessible,TRUE,Half Day,Full Day,,TRUE,,TRUE,,,,,,41.848101,-87.680745,,,,Level 2+,Good Standing
610208,Mildred I Lavizzo Elementary School,60628,Neighborhood,Principal,TRUE,355,348,51,1,348,6,0,0,0,0,0,0,0,1,The largest demographic at LAVIZZO is Black.  This demographic makes up 98% of the student population.  The second greatest demographic is Hispanic at 1.7%.,Fully Accessible,TRUE,Full Day,Full Day,,,,TRUE,,,,,,41.696262,-87.627148,,,,Level 1+,Good Standing
610329,Orozco Fine Arts & Sciences Elementary School,60608,Neighborhood,Principal,TRUE,565,531,72,189,8,550,4,1,2,0,0,0,0,0,The largest demographic at OROZCO is Hispanic.  This demographic makes up 97.3% of the student population.  The second greatest demographic is Black at 1.4%.,Fully Accessible,TRUE,Half Day,Full Day,Spanish,TRUE,,TRUE,,,TRUE,TRUE,,41.857755,-87.67521,,,,Level 1,Good Standing
609768,Hope College Preparatory High School,60621,Neighborhood,Principal,TRUE,138,137,50,8,116,16,4,0,0,0,0,2,0,0,The largest demographic at HOPE HS is Black.  This demographic makes up 84.1% of the student population.  The second greatest demographic is Hispanic at 11.6%.,No/unknown accessibility,TRUE,,Full Day,Spanish,FALSE,FALSE,TRUE,,,TRUE,,,41.793553,-87.641244,14.7,44.8,71.4,Level 2,Intensive Support
610057,Fairfield Elementary Academy,60629,Neighborhood,Principal,TRUE,571,559,69,249,146,415,4,0,2,0,0,2,0,2,The largest demographic at FAIRFIELD is Hispanic.  This demographic makes up 72.7% of the student population.  The second greatest demographic is Black at 25.6%.,No/unknown accessibility,TRUE,Half Day,Full Day,,TRUE,,TRUE,,,,,,41.780904,-87.692115,,,,Level 2+,Provisional Support
400071,Providence Englewood Charter School,60636,Charter,Director,FALSE,492,441,56,10,472,16,1,0,0,0,0,1,1,1,The largest demographic at PROVIDENCE ENGLEWOOD is Black.  This demographic makes up 95.9% of the student population.  The second greatest demographic is Hispanic at 3.3%.,Generally accessible,TRUE,,Full Day,,,,TRUE,,,,,,41.775367,-87.663996,,,,Level 2+,Not Applicable
400109,Prologue-Joshua Johnston Charter School,60643,Charter,Director,FALSE,11,11,0,0,11,0,0,0,0,0,0,0,0,0,The largest demographic at PROLOGUE - JOHNSTON HS is Black.  This demographic makes up 100% of the student population.,Fully Accessible,TRUE,,,,,,TRUE,,,,,,41.721136,-87.662416,13.6,18.6,28.6,Inability to Rate,Not Applicable
610572,Camelot Safe Elementary,60649,Citywide-Option,Principal,FALSE,19,19,4,0,16,3,0,0,0,0,0,0,0,0,The largest demographic at CAMELOT SAFE ES is Black.  This demographic makes up 84.2% of the student population.  The second greatest demographic is Hispanic at 15.8%.,No/unknown accessibility,FALSE,,,,,,,,,,,,41.753117,-87.550513,,,,Level 1,Not Applicable
609995,Rufus M Hitch Elementary School,60646,Neighborhood,Principal,TRUE,585,334,81,136,5,254,249,52,1,0,0,24,0,0,The largest demographic at HITCH is Hispanic.  This demographic makes up 43.4% of the student population.  The second greatest demographic is White at 42.6%.,Generally accessible,TRUE,Half Day,Full Day,,TRUE,,TRUE,,,,,,41.983672,-87.779123,,,,Level 1+,Good Standing
400130,YCCS-Community Youth Development Institute HS,60620,Charter,Director,FALSE,142,140,28,0,140,1,0,0,0,0,0,0,0,1,The largest demographic at YCCS - YOUTH DEVELOPMENT is Black.  This demographic makes up 98.6% of the student population.  The second greatest demographic is Hispanic at 0.7%.,No/unknown accessibility,FALSE,,,,,,,,,,,,41.751377,-87.641731,12.5,14.6,,Level 1,Not Applicable
609746,Kenwood Academy High School,60615,Neighborhood,Principal,TRUE,1766,1048,108,18,1477,78,68,53,3,0,0,48,1,38,The largest demographic at KENWOOD HS is Black.  This demographic makes up 83.6% of the student population.  The second greatest demographic is Other at 5%.,Generally accessible,FALSE,,Full Day,"Chinese, French, Latin, Spanish",TRUE,FALSE,TRUE,,,TRUE,,,41.803772,-87.590421,19.2,78.3,84.6,Level 1+,Good Standing
609942,Johann W von Goethe Elementary School,60647,Neighborhood,Principal,TRUE,780,560,97,150,35,570,138,4,11,0,0,15,0,7,The largest demographic at GOETHE is Hispanic.  This demographic makes up 73.1% of the student population.  The second greatest demographic is White at 17.7%.,No/unknown accessibility,TRUE,Half Day,Full Day,Spanish,TRUE,,TRUE,TRUE,,,,,41.922831,-87.6929,,,,Level 1+,Good Standing
400061,Perspectives - Leadership Academy,60620,Charter,Director,FALSE,487,465,89,1,474,4,0,1,1,0,0,6,1,0,The largest demographic at PERSPECTIVES - LEADERSHIP HS is Black.  This demographic makes up 97.3% of the student population.  The second greatest demographic is Other at 1.4%.,Generally accessible,TRUE,,,Spanish,FALSE,FALSE,TRUE,,,,,,41.745961,-87.652045,16.8,53.2,75.2,Level 1,Not Applicable
610175,Beulah Shoesmith Elementary School,60615,Neighborhood,Principal,TRUE,353,276,30,23,321,14,13,3,1,0,0,1,0,0,The largest demographic at SHOESMITH is Black.  This demographic makes up 90.9% of the student population.  The second greatest demographic is Hispanic at 4%.,No/unknown accessibility,TRUE,,Full Day,,,,TRUE,,,,,,41.804294,-87.593905,,,,Level 1,Good Standing
400137,Little Black Pearl Art and Design Academy,60653,Charter,Director,FALSE,133,114,26,0,132,0,0,0,0,0,0,1,0,0,The largest demographic at LITTLE BLACK PEARL HS is Black.  This demographic makes up 99.2% of the student population.  The second greatest demographic is Other at 0.8%.,No/unknown accessibility,FALSE,,,,,,,,,,,,41.809695,-87.59934,14,66.7,,Level 2+,Good Standing
609737,Friedrich W von Steuben Metropolitan Science HS,60625,Magnet,Principal,FALSE,1714,1276,97,29,172,973,295,231,9,0,0,31,2,1,The largest demographic at VON STEUBEN HS is Hispanic.  This demographic makes up 56.8% of the student population.  The second greatest demographic is White at 17.2%.,Generally accessible,FALSE,,Full Day,"Chinese, French, Spanish",FALSE,FALSE,TRUE,,,TRUE,,,41.973185,-87.713386,21.3,73.4,88.8,Level 1+,Good Standing
610287,Ashburn Community Elementary School,60652,Small,Principal,TRUE,510,430,93,34,427,72,2,0,0,0,0,8,0,1,The largest demographic at ASHBURN is Black.  This demographic makes up 83.7% of the student population.  The second greatest demographic is Hispanic at 14.1%.,No/unknown accessibility,TRUE,Half Day,Full Day,,TRUE,,TRUE,,,TRUE,,,41.742351,-87.70961,,,,Level 1+,Good Standing
610127,Mary Gage Peterson Elementary School,60625,Neighborhood,Principal,TRUE,868,636,111,300,38,328,233,239,2,0,0,25,2,1,The largest demographic at PETERSON is Hispanic.  This demographic makes up 37.8% of the student population.  The second greatest demographic is Asian at 27.5%.,Fully Accessible,FALSE,Half Day,Full Day,,TRUE,TRUE,TRUE,TRUE,,,,,41.981557,-87.712583,,,,Level 1+,Good Standing
610148,Cesar E Chavez Multicultural Academic Center ES,60609,Neighborhood,Principal,TRUE,979,968,96,458,30,937,7,0,4,0,0,0,0,1,The largest demographic at CHAVEZ is Hispanic.  This demographic makes up 95.7% of the student population.  The second greatest demographic is Black at 3.1%.,Generally accessible,TRUE,Half Day,Full Day,Spanish,TRUE,,TRUE,,,TRUE,,,41.807143,-87.666037,,,,Level 1+,Good Standing
400146,KIPP Chicago Charter School - KIPP Create,60644,Charter,Director,FALSE,304,281,44,1,297,7,0,0,0,0,0,0,0,0,The largest demographic at KIPP CHICAGO - CREATE is Black.  This demographic makes up 97.7% of the student population.  The second greatest demographic is Hispanic at 2.3%.,Fully Accessible,TRUE,,,,,,TRUE,,,,,,41.891816,-87.746614,,,,Level 2,Not Applicable
609796,Jean Baptiste Beaubien Elementary School,60630,Regional gifted center,Principal,TRUE,1099,552,110,196,17,404,428,173,4,0,0,64,8,1,The largest demographic at BEAUBIEN is White.  This demographic makes up 38.9% of the student population.  The second greatest demographic is Hispanic at 36.8%.,No/unknown accessibility,FALSE,Half Day,Full Day,,,,FALSE,,,TRUE,,,41.972394,-87.757565,,,,Level 1+,Good Standing
609930,Frederick Funston Elementary School,60647,Neighborhood,Principal,TRUE,460,450,76,195,35,418,5,0,0,0,0,1,0,1,The largest demographic at FUNSTON is Hispanic.  This demographic makes up 90.9% of the student population.  The second greatest demographic is Black at 7.6%.,No/unknown accessibility,TRUE,Half Day,Full Day,,,,TRUE,,TRUE,,,,41.917617,-87.716892,,,,Level 2+,Provisional Support
400044,KIPP Ascend Charter School,60623,Charter,Director,FALSE,874,837,110,11,830,36,6,0,1,0,0,0,0,1,The largest demographic at KIPP - ASCEND is Black.  This demographic makes up 95% of the student population.  The second greatest demographic is Hispanic at 4.1%.,Generally accessible,TRUE,,Full Day,,TRUE,,TRUE,,,,,,41.85837,-87.721071,,,,Level 1,Not Applicable
609872,Manuel Perez Elementary School,60608,Neighborhood,Principal,TRUE,324,313,42,98,8,311,2,3,0,0,0,0,0,0,The largest demographic at PEREZ is Hispanic.  This demographic makes up 96% of the student population.  The second greatest demographic is Black at 2.5%.,No/unknown accessibility,TRUE,Full and Half Day,Full Day,Chinese,,,TRUE,,,,,,41.856029,-87.65798,,,,Level 1,Good Standing
610191,Stone Elementary Scholastic Academy,60659,Magnet,Principal,FALSE,623,309,54,92,130,115,209,143,2,0,0,20,3,1,The largest demographic at STONE is White.  This demographic makes up 33.5% of the student population.  The second greatest demographic is Asian at 23%.,Generally accessible,TRUE,,Full Day,,TRUE,,FALSE,,,,,,41.995359,-87.684793,,,,Level 1+,Good Standing
609904,Edward K Ellington Elementary School,60644,Neighborhood,Principal,TRUE,636,617,117,6,617,16,1,0,0,0,0,1,0,1,The largest demographic at ELLINGTON is Black.  This demographic makes up 97% of the student population.  The second greatest demographic is Hispanic at 2.5%.,Fully Accessible,TRUE,Half Day,Full Day,,,,TRUE,TRUE,TRUE,,,,41.88553,-87.766589,,,,Level 1,Good Standing
609865,Jordan Elementary Community School,60626,Neighborhood,Principal,TRUE,504,498,80,220,156,319,14,7,0,0,0,3,3,2,The largest demographic at JORDAN is Hispanic.  This demographic makes up 63.3% of the student population.  The second greatest demographic is Black at 31%.,Generally accessible,TRUE,Half Day,Full Day,Spanish,TRUE,,TRUE,,,,,,42.017088,-87.677763,,,,Level 2+,Provisional Support
609741,Gurdon S Hubbard High School,60629,Neighborhood,Principal,TRUE,1747,1693,229,234,129,1560,43,3,5,0,0,5,1,1,The largest demographic at HUBBARD HS is Hispanic.  This demographic makes up 89.3% of the student population.  The second greatest demographic is Black at 7.4%.,No/unknown accessibility,TRUE,,Full Day,Spanish,TRUE,FALSE,TRUE,,,,,,41.780526,-87.718014,17.1,56.2,82.9,Level 1,Good Standing
609958,Frank W Gunsaulus Elementary Scholastic Academy,60632,Magnet,Principal,FALSE,793,712,78,237,28,726,8,18,5,0,0,7,1,0,The largest demographic at GUNSAULUS is Hispanic.  This demographic makes up 91.6% of the student population.  The second greatest demographic is Black at 3.5%.,No/unknown accessibility,TRUE,Half Day,Full Day,,TRUE,,TRUE,,,,,,41.813007,-87.699364,,,,Level 1,Good Standing
609806,Myra Bradwell Communications Arts & Sciences ES,60649,Neighborhood,Principal,TRUE,648,640,84,12,633,7,3,0,0,0,0,5,0,0,The largest demographic at BRADWELL is Black.  This demographic makes up 97.7% of the student population.  The second greatest demographic is Hispanic at 1.1%.,Generally accessible,TRUE,Half Day,Full Day,,,,TRUE,,,,,,41.754365,-87.557142,,,,Level 2,Intensive Support
610024,Lazaro Cardenas Elementary School,60623,Neighborhood,Principal,TRUE,613,597,80,328,21,585,2,2,1,0,0,2,0,0,The largest demographic at CARDENAS is Hispanic.  This demographic makes up 95.4% of the student population.  The second greatest demographic is Black at 3.4%.,No/unknown accessibility,TRUE,Half Day,Full Day,Spanish,TRUE,,TRUE,,TRUE,,,,41.848488,-87.716017,,,,Level 1+,Good Standing
610245,Frederick A Douglass Academy High School,60644,Neighborhood,Principal,FALSE,162,158,51,1,156,5,0,0,0,0,0,1,0,0,The largest demographic at DOUGLASS HS is Black.  This demographic makes up 96.3% of the student population.  The second greatest demographic is Hispanic at 3.1%.,Generally accessible,TRUE,,Full Day,Spanish,TRUE,,TRUE,,,,,,41.890369,-87.767668,13.6,20.7,56.3,Level 3,Intensive Support
610182,Hannah G Solomon Elementary School,60659,Neighborhood,Principal,TRUE,357,194,80,116,11,51,156,133,0,0,0,6,0,0,The largest demographic at SOLOMON is White.  This demographic makes up 43.7% of the student population.  The second greatest demographic is Asian at 37.3%.,Generally accessible,TRUE,Half Day,Full Day,Chinese,,,FALSE,,TRUE,TRUE,,,41.993942,-87.724043,,,,Level 1+,Good Standing
609966,Charles G Hammond Elementary School,60623,Neighborhood,Principal,TRUE,445,433,85,185,29,406,9,0,0,0,0,0,0,1,The largest demographic at HAMMOND is Hispanic.  This demographic makes up 91.2% of the student population.  The second greatest demographic is Black at 6.5%.,No/unknown accessibility,TRUE,Half Day,Full Day,,TRUE,,TRUE,TRUE,TRUE,,,,41.852719,-87.696243,,,,Level 1+,Provisional Support
609692,Neal F Simeon Career Academy High School,60620,Career academy,Principal,FALSE,1299,1180,120,0,1278,13,1,0,1,0,0,6,0,0,The largest demographic at SIMEON HS is Black.  This demographic makes up 98.4% of the student population.  The second greatest demographic is Hispanic at 1%.,Generally accessible,TRUE,,Full Day,"French, Spanish",FALSE,FALSE,TRUE,,,TRUE,,,41.745781,-87.63541,16.2,63.2,80.7,Level 1,Good Standing
610188,Dunne Technology Academy,60628,Neighborhood,Principal,TRUE,259,228,32,0,254,5,0,0,0,0,0,0,0,0,The largest demographic at DUNNE is Black.  This demographic makes up 98.1% of the student population.  The second greatest demographic is Hispanic at 1.9%.,Generally accessible,TRUE,Half Day,Full Day,,,,TRUE,,,,,,41.696496,-87.639974,,,,Level 1,Good Standing
609744,Northside Learning Center High School,60659,Special Education,Principal,FALSE,218,173,218,65,57,103,43,11,1,0,0,3,0,0,The largest demographic at NORTHSIDE LEARNING HS is Hispanic.  This demographic makes up 47.2% of the student population.  The second greatest demographic is Black at 26.1%.,Fully Accessible,FALSE,,Full Day,American Sign Language,TRUE,,TRUE,,,TRUE,,,41.982973,-87.722386,,0,3.1,Inability to Rate,Good Standing
610219,George Washington Elementary School,60617,Neighborhood,Principal,TRUE,860,633,73,79,9,778,64,2,3,0,0,4,0,0,The largest demographic at WASHINGTON G ES is Hispanic.  This demographic makes up 90.5% of the student population.  The second greatest demographic is White at 7.4%.,Generally accessible,TRUE,Half Day,Full Day,Chinese,TRUE,,TRUE,,,,,,41.688131,-87.536015,,,,Level 1,Good Standing
610334,Al Raby High School,60624,Small,Principal,FALSE,402,395,109,12,374,25,1,1,0,0,0,0,1,0,The largest demographic at RABY HS is Black.  This demographic makes up 93% of the student population.  The second greatest demographic is Hispanic at 6.2%.,Generally accessible,TRUE,,Full Day,Spanish,FALSE,FALSE,TRUE,,,TRUE,,,41.88621,-87.715423,14.5,51.1,73.4,Level 2,Intensive Support
609848,Ira F Aldridge Elementary School,60827,Neighborhood,Principal,TRUE,167,153,23,0,165,2,0,0,0,0,0,0,0,0,The largest demographic at ALDRIDGE is Black.  This demographic makes up 98.8% of the student population.  The second greatest demographic is Hispanic at 1.2%.,Generally accessible,TRUE,Full Day,Full Day,,,,TRUE,,,,,,41.657405,-87.606474,,,,Level 2,Intensive Support
610276,Irvin C Mollison Elementary School,60653,Neighborhood,Principal,TRUE,370,348,30,4,364,1,0,0,0,0,0,3,0,2,The largest demographic at MOLLISON is Black.  This demographic makes up 98.4% of the student population.  The second greatest demographic is Other at 1.3%.,Generally accessible,TRUE,Half Day,Full Day,,,,TRUE,,,,,,41.814358,-87.616618,,,,Level 2,Intensive Support
610013,Pilsen Elementary Community Academy,60608,Neighborhood,Principal,TRUE,356,233,98,135,37,303,8,5,1,0,0,2,0,0,The largest demographic at PILSEN is Hispanic.  This demographic makes up 85.1% of the student population.  The second greatest demographic is Black at 10.4%.,No/unknown accessibility,TRUE,Half Day,Full Day,,,,TRUE,TRUE,TRUE,,,,41.858849,-87.662209,,,,Level 2,Provisional Support
400056,Noble - Rowe-Clark Math and Science Academy,60651,Charter,Director,FALSE,527,487,112,27,386,133,1,2,2,0,0,3,0,0,The largest demographic at NOBLE - ROWE CLARK HS is Black.  This demographic makes up 73.2% of the student population.  The second greatest demographic is Hispanic at 25.2%.,Fully Accessible,TRUE,,,Spanish,FALSE,FALSE,TRUE,,,,,,41.895362,-87.718047,18.5,76.9,82.4,Level 2+,Not Applicable
610385,Multicultural Academy of Scholarship,60623,Small,Principal,TRUE,251,246,63,64,42,204,2,0,2,0,0,1,0,0,The largest demographic at MULTICULTURAL HS is Hispanic.  This demographic makes up 81.3% of the student population.  The second greatest demographic is Black at 16.7%.,Fully Accessible,TRUE,,Full Day,Spanish,TRUE,FALSE,TRUE,,,,,,41.835282,-87.735283,14.6,41,80.9,Level 2+,Good Standing
609800,Frank I Bennett Elementary School,60628,Neighborhood,Principal,TRUE,332,316,29,1,326,0,2,0,0,0,0,4,0,0,The largest demographic at BENNETT is Black.  This demographic makes up 98.2% of the student population.  The second greatest demographic is Other at 1.2%.,No/unknown accessibility,TRUE,Half Day,Full Day,,,,TRUE,,,,,,41.710435,-87.61739,,,,Level 1,Good Standing
610146,Paul Revere Elementary School,60619,Neighborhood,Principal,TRUE,230,226,27,0,227,1,0,0,0,0,0,1,0,1,The largest demographic at REVERE is Black.  This demographic makes up 98.7% of the student population.  The second greatest demographic is Other at 0.8%.,No/unknown accessibility,TRUE,Half Day,Full Day,,,,TRUE,,,,,,41.764196,-87.600177,,,,Level 2+,Intensive Support
609937,John W Garvy Elementary School,60656,Neighborhood,Principal,TRUE,802,334,100,177,6,232,477,42,1,0,0,20,21,3,The largest demographic at GARVY is White.  This demographic makes up 59.5% of the student population.  The second greatest demographic is Hispanic at 28.9%.,No/unknown accessibility,TRUE,,Full Day,,,,FALSE,,,,,,41.976352,-87.796235,,,,Level 1+,Good Standing
610367,Oscar DePriest Elementary School,60644,Neighborhood,Principal,TRUE,602,587,114,7,576,19,1,1,1,0,0,3,1,0,The largest demographic at DEPRIEST is Black.  This demographic makes up 95.7% of the student population.  The second greatest demographic is Hispanic at 3.2%.,Fully Accessible,TRUE,Full and Half Day,Full Day,Spanish,TRUE,,TRUE,,TRUE,TRUE,,TRUE,41.877979,-87.766298,,,,Level 1,Good Standing
610194,Charles Sumner  Math & Science Community Acad ES,60624,Neighborhood,Principal,TRUE,262,246,29,0,258,4,0,0,0,0,0,0,0,0,The largest demographic at SUMNER is Black.  This demographic makes up 98.5% of the student population.  The second greatest demographic is Hispanic at 1.5%.,No/unknown accessibility,TRUE,Full and Half Day,Full Day,,,,TRUE,,,,,,41.870828,-87.733524,,,,Level 1+,Good Standing
609975,John Hay Elementary Community Academy,60651,Neighborhood,Principal,TRUE,419,403,43,18,353,60,2,1,0,0,0,3,0,0,The largest demographic at HAY is Black.  This demographic makes up 84.2% of the student population.  The second greatest demographic is Hispanic at 14.3%.,No/unknown accessibility,TRUE,Full and Half Day,Full Day,,,,TRUE,,,,,,41.899171,-87.755813,,,,Level 2+,Good Standing
609807,Lionel Hampton Fine & Performing Arts ES,60652,Neighborhood,Principal,TRUE,540,486,89,100,240,288,4,0,3,0,0,3,0,2,The largest demographic at HAMPTON is Hispanic.  This demographic makes up 53.3% of the student population.  The second greatest demographic is Black at 44.4%.,Fully Accessible,TRUE,,Full Day,,TRUE,,TRUE,,,TRUE,,,41.753457,-87.708731,,,,Level 2+,Good Standing
400050,Namaste Charter School,60609,Charter,Director,FALSE,478,371,85,196,15,416,37,2,2,0,0,5,1,0,The largest demographic at NAMASTE is Hispanic.  This demographic makes up 87% of the student population.  The second greatest demographic is White at 7.7%.,Generally accessible,TRUE,,Full Day,Spanish,TRUE,,TRUE,,,,,,41.8257,-87.667724,,,,Level 1,Not Applicable
400107,L.E.A.R.N. - South Chicago Campus,60617,Charter,Director,FALSE,474,391,57,41,417,53,3,0,0,0,0,0,1,0,The largest demographic at LEARN - SOUTH CHICAGO is Black.  This demographic makes up 88% of the student population.  The second greatest demographic is Hispanic at 11.2%.,No/unknown accessibility,TRUE,,,,,,TRUE,,,,,,41.733333,-87.54558,,,,Level 2+,Not Applicable
400052,Noble - Gary Comer College Prep,60619,Charter,Director,TRUE,1132,980,172,7,1079,40,0,0,0,0,0,4,0,9,The largest demographic at NOBLE - COMER is Black.  This demographic makes up 95.3% of the student population.  The second greatest demographic is Hispanic at 3.5%.,No/unknown accessibility,TRUE,,,Spanish,FALSE,FALSE,TRUE,,,,,,41.764083,-87.601974,17.9,84.2,88.1,Level 1,Not Applicable
400084,UNO Charter School - Rufino Tamayo,60632,Charter,Director,TRUE,285,271,38,162,1,283,0,0,1,0,0,0,0,0,The largest demographic at UNO - TAMAYO is Hispanic.  This demographic makes up 99.3% of the student population.  The second greatest demographic is Black at 0.4%.,No/unknown accessibility,TRUE,,Full Day,,,,TRUE,,,,,,41.79993,-87.693862,,,,Level 1+,Not Applicable
400053,Noble - Golder College Prep,60642,Charter,Director,FALSE,647,588,102,69,70,554,12,4,2,0,0,5,0,0,The largest demographic at NOBLE - GOLDER HS is Hispanic.  This demographic makes up 85.6% of the student population.  The second greatest demographic is Black at 10.8%.,Generally accessible,TRUE,,,Spanish,FALSE,FALSE,TRUE,,,,,,41.895282,-87.664483,19.5,80.5,81.7,Level 1+,Not Applicable
400010,ACE Technical Charter School,60609,Charter,Director,FALSE,375,369,70,21,307,59,7,0,0,0,0,1,1,0,The largest demographic at ACE TECH HS is Black.  This demographic makes up 81.9% of the student population.  The second greatest demographic is Hispanic at 15.7%.,Generally accessible,TRUE,,,"French, Spanish",TRUE,FALSE,TRUE,,,,,,41.796122,-87.625849,15.2,56.3,68.8,Level 2,Not Applicable
400104,Instituto Health Sciences Career Academy,60608,Charter,Director,FALSE,752,741,139,145,25,721,4,0,1,0,0,0,0,1,The largest demographic at INSTITUTO - HEALTH is Hispanic.  This demographic makes up 95.9% of the student population.  The second greatest demographic is Black at 3.3%.,No/unknown accessibility,TRUE,,,Spanish,FALSE,FALSE,TRUE,,,,,,41.845967,-87.68724,16.7,56.4,82.8,Level 1,Not Applicable
610347,Claremont Academy Elementary School,60636,Neighborhood,Principal,TRUE,443,434,92,26,367,63,5,0,0,0,0,2,6,0,The largest demographic at CLAREMONT is Black.  This demographic makes up 82.8% of the student population.  The second greatest demographic is Hispanic at 14.2%.,Fully Accessible,TRUE,Half Day,Full Day,,,,TRUE,,,TRUE,,,41.777511,-87.681061,,,,Level 1+,Good Standing
400128,YCCS-CCA Academy HS,60623,Charter,Director,FALSE,178,176,42,0,177,1,0,0,0,0,0,0,0,0,The largest demographic at YCCS - CCA ACADEMY is Black.  This demographic makes up 99.4% of the student population.  The second greatest demographic is Hispanic at 0.6%.,No/unknown accessibility,FALSE,,,,,,,,,,,,41.864943,-87.723662,13.4,6.3,,Level 1,Not Applicable
610111,John Palmer Elementary School,60630,Neighborhood,Principal,TRUE,825,686,102,281,11,402,243,118,1,0,0,8,41,1,The largest demographic at PALMER is Hispanic.  This demographic makes up 48.7% of the student population.  The second greatest demographic is White at 29.5%.,No/unknown accessibility,TRUE,Half Day,Full Day,,TRUE,,TRUE,,,,,,41.973289,-87.739213,,,,Level 1+,Good Standing
400172,ASPIRA Business and Finance,60618,Charter,Director,FALSE,333,322,77,101,5,315,8,1,2,0,0,2,0,0,The largest demographic at ASPIRA - BUSINESS & FINANCE HS is Hispanic.  This demographic makes up 94.6% of the student population.  The second greatest demographic is White at 2.4%.,No/unknown accessibility,FALSE,,,,,,,,,,,,41.935726,-87.718204,,,,Level 1+,Not Applicable
610534,Skinner North,60610,Classical,Principal,FALSE,486,46,27,1,62,57,195,143,0,0,0,27,2,0,The largest demographic at SKINNER NORTH is White.  This demographic makes up 40.1% of the student population.  The second greatest demographic is Asian at 29.4%.,Generally accessible,FALSE,,Full Day,,,,FALSE,,,,,,41.905109,-87.644841,,,,Level 1+,Good Standing
610369,Mahalia Jackson Elementary School,60620,Neighborhood,Principal,TRUE,335,324,60,0,327,5,1,0,0,0,0,1,0,1,The largest demographic at JACKSON M is Black.  This demographic makes up 97.6% of the student population.  The second greatest demographic is Hispanic at 1.5%.,Fully Accessible,TRUE,Full Day,Full Day,,FALSE,,TRUE,,,TRUE,TRUE,,41.734125,-87.646767,,,,Level 3,Intensive Support
400124,YCCS-Ada S. McKinley-Lakeside HS,60616,Charter,Director,FALSE,174,173,39,0,170,4,0,0,0,0,0,0,0,0,The largest demographic at YCCS - MCKINLEY is Black.  This demographic makes up 97.7% of the student population.  The second greatest demographic is Hispanic at 2.3%.,No/unknown accessibility,FALSE,,,,,,,,,,,,41.841331,-87.625331,13.9,12.5,,Level 2+,Not Applicable
610183,Spencer Technology Academy,60644,Neighborhood,Principal,TRUE,684,664,92,2,670,10,2,0,0,0,0,2,0,0,The largest demographic at SPENCER is Black.  This demographic makes up 98% of the student population.  The second greatest demographic is Hispanic at 1.5%.,Generally accessible,TRUE,Half Day,Full Day,,,,TRUE,,,,,,41.884876,-87.750445,,,,Level 2,Intensive Support
610220,Thomas J Waters Elementary School,60625,Neighborhood,Principal,TRUE,633,237,51,96,21,238,314,23,1,0,0,32,4,0,The largest demographic at WATERS is White.  This demographic makes up 49.6% of the student population.  The second greatest demographic is Hispanic at 37.6%.,No/unknown accessibility,FALSE,,Full Day,,TRUE,,FALSE,,,,,,41.964165,-87.691433,,,,Level 1+,Good Standing
400077,University of Chicago - Woodlawn,60637,Charter,Director,TRUE,613,507,103,1,601,5,4,0,0,0,0,2,1,0,The largest demographic at U OF C - WOODLAWN HS is Black.  This demographic makes up 98% of the student population.  The second greatest demographic is Hispanic at 0.8%.,Generally accessible,TRUE,,,,FALSE,FALSE,TRUE,,,,,,41.77813,-87.598114,17.2,80.4,76.3,Level 1,Not Applicable
610539,Marvin Camras Elementary School,60634,Neighborhood,Principal,TRUE,973,869,121,374,13,868,59,21,6,0,0,3,2,1,The largest demographic at CAMRAS is Hispanic.  This demographic makes up 89.2% of the student population.  The second greatest demographic is White at 6.1%.,Fully Accessible,TRUE,Half Day,Full Day,"Polish, Spanish",TRUE,,TRUE,TRUE,,,,,41.934931,-87.770127,,,,Level 2+,Good Standing
400164,Instituto - Justice Lozano Mastery,60608,Charter,Director,FALSE,31,30,2,3,1,30,0,0,0,0,0,0,0,0,The largest demographic at INSTITUTO - LOZANO MASTERY HS is Hispanic.  This demographic makes up 96.8% of the student population.  The second greatest demographic is Black at 3.2%.,No/unknown accessibility,FALSE,,,,,,,,,,,,41.845957,-87.685903,14.9,18.2,,Level 2,Not Applicable
610251,Willa Cather Elementary School,60612,Neighborhood,Principal,TRUE,395,381,76,3,383,8,0,3,0,0,0,1,0,0,The largest demographic at CATHER is Black.  This demographic makes up 97% of the student population.  The second greatest demographic is Hispanic at 2%.,Generally accessible,TRUE,Full and Half Day,Full Day,,FALSE,,TRUE,TRUE,,,,,41.88295,-87.699187,,,,Level 1,Good Standing
400026,CICS - Loomis Primary,60643,Charter,Director,FALSE,542,496,53,1,531,3,1,0,0,0,0,2,0,5,The largest demographic at CICS - LOOMIS is Black.  This demographic makes up 98% of the student population.  The second greatest demographic is Other at 1.3%.,Generally accessible,TRUE,,Full Day,,,,TRUE,,,,,,41.720246,-87.657561,,,,Inability to Rate,Not Applicable
610235,Ella Flagg Young Elementary School,60651,Neighborhood,Principal,TRUE,882,857,114,46,766,98,2,2,3,0,0,4,5,2,The largest demographic at YOUNG ES is Black.  This demographic makes up 86.8% of the student population.  The second greatest demographic is Hispanic at 11.1%.,No/unknown accessibility,TRUE,Full and Half Day,Full Day,,TRUE,,TRUE,,,,,,41.906791,-87.767143,,,,Level 1,Good Standing
400025,CICS - Bucktown,60647,Charter,Director,FALSE,696,499,92,110,78,572,24,4,6,0,0,10,0,2,The largest demographic at CICS - BUCKTOWN is Hispanic.  This demographic makes up 82.2% of the student population.  The second greatest demographic is Black at 11.2%.,No/unknown accessibility,TRUE,,Full Day,,,,TRUE,,,,,,41.922415,-87.681358,,,,Level 2+,Not Applicable
610163,Frederick Stock Elementary School,60631,Special Education,Principal,FALSE,247,48,116,34,3,54,177,7,0,0,0,5,0,1,The largest demographic at STOCK is White.  This demographic makes up 71.7% of the student population.  The second greatest demographic is Hispanic at 21.9%.,Generally accessible,FALSE,Half Day,Full Day,,,,FALSE,TRUE,TRUE,,,,42.016892,-87.814195,,,,Inability to Rate,Good Standing
609871,Barbara Vick Early Childhood & Family Center,60655,Special Education,Principal,FALSE,355,196,172,82,76,157,113,2,0,0,0,2,0,5,The largest demographic at VICK is Hispanic.  This demographic makes up 44.2% of the student population.  The second greatest demographic is White at 31.8%.,Generally accessible,FALSE,Half Day,Full Day,Spanish,TRUE,,FALSE,TRUE,TRUE,,,,41.688191,-87.685677,,,,Inability to Rate,Good Standing
609813,Charles S Brownell Elementary School,60637,Neighborhood,Principal,TRUE,200,199,23,2,195,3,0,0,0,0,0,1,0,1,The largest demographic at BROWNELL is Black.  This demographic makes up 97.5% of the student population.  The second greatest demographic is Hispanic at 1.5%.,No/unknown accessibility,TRUE,Half Day,Full Day,,,,TRUE,,,,,,41.77162,-87.621746,,,,Level 2+,Good Standing
610179,Washington D Smyser Elementary School,60634,Neighborhood,Principal,TRUE,987,748,75,216,18,609,312,35,3,0,0,5,5,0,The largest demographic at SMYSER is Hispanic.  This demographic makes up 61.7% of the student population.  The second greatest demographic is White at 31.6%.,No/unknown accessibility,TRUE,Half Day,Full Day,"Polish, Spanish",TRUE,,TRUE,,,TRUE,,,41.958868,-87.781975,,,,Level 1,Good Standing
609795,George Rogers Clark Elementary School,60644,Neighborhood,Principal,TRUE,251,226,22,37,151,84,7,2,2,0,0,3,1,1,The largest demographic at CLARK ES is Black.  This demographic makes up 60.2% of the student population.  The second greatest demographic is Hispanic at 33.5%.,Generally accessible,TRUE,Half Day,Full Day,,,,TRUE,,,,,,41.867813,-87.770418,,,,Level 2+,Good Standing
610065,Emmett Louis Till Math and Science Academy,60637,Neighborhood,Principal,TRUE,342,339,48,1,336,3,0,0,2,0,0,1,0,0,The largest demographic at TILL is Black.  This demographic makes up 98.2% of the student population.  The second greatest demographic is Hispanic at 0.9%.,Generally accessible,TRUE,Full Day,Full Day,,,,TRUE,,,,,,41.775424,-87.609357,,,,Level 1,Intensive Support
610228,John Greenleaf Whittier Elementary School,60608,Neighborhood,Principal,TRUE,262,255,32,171,0,260,2,0,0,0,0,0,0,0,The largest demographic at WHITTIER is Hispanic.  This demographic makes up 99.2% of the student population.  The second greatest demographic is White at 0.8%.,No/unknown accessibility,TRUE,Half Day,Full Day,,TRUE,,TRUE,,,,,,41.850481,-87.673392,,,,Level 2+,Provisional Support
609907,Leif Ericson Elementary Scholastic Academy,60624,Magnet,Principal,FALSE,446,427,35,2,432,4,0,0,0,0,0,3,0,7,The largest demographic at ERICSON is Black.  This demographic makes up 96.9% of the student population.  The second greatest demographic is Other at 2.3%.,Generally accessible,TRUE,,Full Day,,,,TRUE,,,,,,41.875744,-87.715804,,,,Level 1,Good Standing
610006,Edward N Hurley Elementary School,60629,Neighborhood,Principal,TRUE,849,779,75,269,6,835,3,0,1,0,0,0,0,4,The largest demographic at HURLEY is Hispanic.  This demographic makes up 98.4% of the student population.  The second greatest demographic is Black at 0.7%.,No/unknown accessibility,TRUE,Half Day,Full Day,Spanish,TRUE,,TRUE,,,,,,41.766785,-87.719541,,,,Level 1,Good Standing
610015,Joseph Jungman Elementary School,60608,Neighborhood,Principal,TRUE,286,275,71,128,32,247,2,1,1,0,0,2,0,1,The largest demographic at JUNGMAN is Hispanic.  This demographic makes up 86.4% of the student population.  The second greatest demographic is Black at 11.2%.,Fully Accessible,TRUE,Half Day,Full Day,Spanish,TRUE,,TRUE,,,TRUE,,,41.858065,-87.652302,,,,Level 1,Good Standing
609829,John C Burroughs Elementary School,60632,Neighborhood,Principal,TRUE,484,442,54,178,8,457,15,2,0,0,0,1,1,0,The largest demographic at BURROUGHS is Hispanic.  This demographic makes up 94.4% of the student population.  The second greatest demographic is White at 3.1%.,No/unknown accessibility,TRUE,Half Day,Full Day,,,,TRUE,,,,,,41.828868,-87.692457,,,,Level 1,Good Standing
610077,Donald Morrill Math & Science Elementary School,60629,Neighborhood,Principal,TRUE,750,726,92,252,290,451,6,0,1,0,0,2,0,0,The largest demographic at MORRILL is Hispanic.  This demographic makes up 60.1% of the student population.  The second greatest demographic is Black at 38.7%.,No/unknown accessibility,TRUE,Half Day,Full Day,,,,TRUE,,,,,,41.784313,-87.688549,,,,Level 2+,Good Standing
609713,Hyde Park Academy High School,60637,Neighborhood,Principal,TRUE,717,707,148,3,704,7,0,0,2,0,0,4,0,0,The largest demographic at HYDE PARK HS is Black.  This demographic makes up 98.2% of the student population.  The second greatest demographic is Hispanic at 1%.,Fully Accessible,TRUE,,Full Day,"French, Spanish",FALSE,FALSE,TRUE,,,TRUE,,,41.782257,-87.586615,15.7,47.7,53.6,Level 2,Intensive Support
609862,Edward Coles Elementary Language Academy,60617,Neighborhood,Principal,TRUE,477,462,66,5,465,7,0,2,0,0,0,2,0,1,The largest demographic at COLES is Black.  This demographic makes up 97.5% of the student population.  The second greatest demographic is Hispanic at 1.5%.,No/unknown accessibility,TRUE,Half Day,Full Day,,FALSE,FALSE,TRUE,,TRUE,,,,41.741413,-87.56597,,,,Level 1+,Good Standing
610030,Charles Kozminski Elementary Community Academy,60615,Neighborhood,Principal,TRUE,276,257,42,5,268,5,0,2,0,0,0,1,0,0,The largest demographic at KOZMINSKI is Black.  This demographic makes up 97.1% of the student population.  The second greatest demographic is Hispanic at 1.8%.,No/unknown accessibility,TRUE,Half Day,Full Day,,,,TRUE,TRUE,,,,,41.798002,-87.602481,,,,Level 2,Intensive Support
400176,Excel - Southwest HS,60629,Citywide-Option,Principal,FALSE,174,166,42,2,155,14,0,0,1,0,0,3,0,1,The largest demographic at CAMELOT - EXCEL SOUTHWEST HS is Black.  This demographic makes up 89.1% of the student population.  The second greatest demographic is Hispanic at 8%.,No/unknown accessibility,FALSE,,,,,,,,,,,,41.765929,-87.69073,13.6,27.3,,Level 2+,Good Standing
609863,Christopher Columbus Elementary School,60622,Neighborhood,Principal,TRUE,300,232,27,119,23,73,196,3,0,0,0,5,0,0,The largest demographic at COLUMBUS is White.  This demographic makes up 65.3% of the student population.  The second greatest demographic is Hispanic at 24.3%.,No/unknown accessibility,TRUE,Half Day,Full Day,,TRUE,,TRUE,,,,,,41.899566,-87.681938,,,,Level 1,Good Standing
609786,Avalon Park Elementary School,60619,Neighborhood,Principal,TRUE,287,274,34,1,282,1,2,0,0,0,0,1,1,0,The largest demographic at AVALON PARK is Black.  This demographic makes up 98.3% of the student population.  The second greatest demographic is White at 0.7%.,No/unknown accessibility,TRUE,Half Day,Full Day,,,,TRUE,,,,,,41.748247,-87.591654,,,,Level 1+,Provisional Support
610133,Laura S Ward Elementary School,60624,Neighborhood,Principal,TRUE,528,522,53,15,486,35,2,0,0,0,0,1,1,3,The largest demographic at WARD L is Black.  This demographic makes up 92% of the student population.  The second greatest demographic is Hispanic at 6.6%.,Generally accessible,TRUE,Full and Half Day,Full Day,,,,TRUE,,,,,,41.893236,-87.718797,,,,Level 1+,Good Standing
610165,Franz Peter Schubert Elementary School,60639,Neighborhood,Principal,TRUE,864,811,94,461,19,809,22,10,0,0,0,2,0,2,The largest demographic at SCHUBERT is Hispanic.  This demographic makes up 93.6% of the student population.  The second greatest demographic is White at 2.5%.,No/unknown accessibility,TRUE,Half Day,Full Day,Spanish,,,TRUE,,,,,,41.930403,-87.76119,,,,Level 1,Good Standing
610515,Disney II Magnet School,60641,Magnet,Principal,FALSE,426,128,41,57,37,164,187,23,2,0,0,9,3,1,The largest demographic at DISNEY II ES is White.  This demographic makes up 43.9% of the student population.  The second greatest demographic is Hispanic at 38.5%.,Generally accessible,FALSE,,Full Day,"Arabic, Spanish",,FALSE,FALSE,,,,,,41.950461,-87.730678,,,,Level 1+,Good Standing
610304,Phoenix Military Academy High School,60612,Military academy,Principal,FALSE,534,505,39,16,117,404,3,6,2,0,0,2,0,0,The largest demographic at PHOENIX MILITARY HS is Hispanic.  This demographic makes up 75.7% of the student population.  The second greatest demographic is Black at 21.9%.,Generally accessible,TRUE,,Full Day,Spanish,TRUE,FALSE,TRUE,,,,,,41.879118,-87.68696,19,45.2,91.5,Level 1+,Good Standing
610561,Richard T Crane Medical Preparatory HS,60612,Magnet,Principal,FALSE,580,502,23,8,420,144,4,8,1,0,0,3,0,0,The largest demographic at CRANE MEDICAL HS is Black.  This demographic makes up 72.4% of the student population.  The second greatest demographic is Hispanic at 24.8%.,Generally accessible,TRUE,,Full Day,"Chinese, French, Spanish",FALSE,FALSE,TRUE,,,,,,41.876947,-87.683301,18.7,,,Level 1,Good Standing
609938,Joseph E Gary Elementary School,60623,Neighborhood,Principal,TRUE,1125,1085,161,458,1,1104,14,1,4,0,0,0,0,1,The largest demographic at GARY is Hispanic.  This demographic makes up 98.1% of the student population.  The second greatest demographic is White at 1.2%.,No/unknown accessibility,TRUE,Half Day,Full Day,Spanish,TRUE,FALSE,TRUE,,,TRUE,,,41.837065,-87.718697,,,,Level 1,Good Standing
609927,Foster Park Elementary School,60620,Neighborhood,Principal,TRUE,391,362,81,2,374,12,1,2,0,0,0,2,0,0,The largest demographic at FOSTER PARK is Black.  This demographic makes up 95.7% of the student population.  The second greatest demographic is Hispanic at 3.1%.,No/unknown accessibility,TRUE,Half Day,Full Day,,,,TRUE,,TRUE,TRUE,,,41.738425,-87.668099,,,,Level 1,Good Standing
610581,Magic Johnson- Brainerd HS,60620,Citywide-Option,Principal,FALSE,135,125,29,0,127,7,0,0,0,0,0,1,0,0,The largest demographic at MAGIC JOHNSON - BRAINERD HS is Black.  This demographic makes up 94.1% of the student population.  The second greatest demographic is Hispanic at 5.2%.,No/unknown accessibility,FALSE,,,,,,,,,,,,41.731492,-87.66314,14.2,,,Level 2,Provisional Support
610363,Walt Disney Magnet Elementary School,60613,Magnet,Principal,FALSE,1546,902,137,176,634,342,329,158,6,0,0,74,2,1,The largest demographic at DISNEY is Black.  This demographic makes up 41% of the student population.  The second greatest demographic is Hispanic at 22.1%.,Generally accessible,FALSE,Half Day,Full Day,Chinese,TRUE,,FALSE,,,,,,41.956816,-87.646083,,,,Level 1+,Good Standing
609918,Eugene Field Elementary School,60626,Neighborhood,Principal,TRUE,196,189,28,58,60,106,7,19,1,0,0,2,0,1,The largest demographic at FIELD is Hispanic.  This demographic makes up 54.1% of the student population.  The second greatest demographic is Black at 30.6%.,Generally accessible,TRUE,,Full Day,,,,TRUE,,,,,,42.009664,-87.669985,,,,Level 1,Good Standing
400058,North Lawndale College Prep - Christiana,60623,Charter,Director,FALSE,362,353,63,0,361,1,0,0,0,0,0,0,0,0,The largest demographic at NORTH LAWNDALE - CHRISTIANA HS is Black.  This demographic makes up 99.7% of the student population.  The second greatest demographic is Hispanic at 0.3%.,Fully Accessible,TRUE,,,Spanish,TRUE,FALSE,TRUE,,,,,,41.858564,-87.708987,15.3,65.8,67.1,Level 1,Not Applicable
610504,Velma F Thomas Early Childhood Center,60609,Neighborhood,Principal,FALSE,169,138,59,127,0,147,10,9,0,0,0,2,0,1,The largest demographic at THOMAS is Hispanic.  This demographic makes up 87% of the student population.  The second greatest demographic is White at 5.9%.,Generally accessible,FALSE,Full and Half Day,Full Day,Spanish for Heritage Speakers,TRUE,,FALSE,TRUE,TRUE,,,,41.827775,-87.677542,,,,Inability to Rate,Good Standing
609750,Simpson Academy HS for Young Women,60608,Citywide-Option,Principal,FALSE,70,70,11,3,50,18,2,0,0,0,0,0,0,0,The largest demographic at SIMPSON HS is Black.  This demographic makes up 71.4% of the student population.  The second greatest demographic is Hispanic at 25.7%.,No/unknown accessibility,FALSE,,Full Day,,,,TRUE,,,,,,41.864365,-87.668722,16.7,,21.4,Level 2,Provisional Support
400134,YCCS-Jane Addams Alternative HS,60616,Charter,Director,FALSE,133,133,18,1,45,81,3,1,1,0,0,0,2,0,The largest demographic at YCCS - ADDAMS is Hispanic.  This demographic makes up 60.9% of the student population.  The second greatest demographic is Black at 33.8%.,No/unknown accessibility,FALSE,,,,,,,,,,,,41.857208,-87.644888,13.1,16.7,,Level 1+,Not Applicable
400144,YCCS-Westside Holistic Leadership Acad HS,60651,Charter,Director,FALSE,83,83,13,1,68,15,0,0,0,0,0,0,0,0,The largest demographic at YCCS - WESTSIDE HOLISTIC is Black.  This demographic makes up 81.9% of the student population.  The second greatest demographic is Hispanic at 18.1%.,No/unknown accessibility,FALSE,,,,,,,,,,,,41.90224,-87.74881,14.1,20.8,,Level 1+,Not Applicable
400163,KIPP Chicago Charter School - KIPP Bloom,60621,Charter,Director,FALSE,314,291,48,0,310,1,1,0,0,0,0,2,0,0,The largest demographic at KIPP CHICAGO - BLOOM is Black.  This demographic makes up 98.7% of the student population.  The second greatest demographic is Other at 0.6%.,Fully Accessible,TRUE,,,,,,TRUE,,,,,,41.793556,-87.639967,,,,Level 1+,Not Applicable
610167,William H Seward Communication Arts Academy ES,60609,Neighborhood,Principal,TRUE,728,727,68,313,1,714,11,0,0,0,0,0,0,2,The largest demographic at SEWARD is Hispanic.  This demographic makes up 98.1% of the student population.  The second greatest demographic is White at 1.5%.,Generally accessible,TRUE,Half Day,Full Day,,,,TRUE,,,,,,41.810333,-87.668772,,,,Level 2+,Good Standing
610364,William E B Dubois Elementary School,60827,Neighborhood,Principal,TRUE,253,248,31,4,243,5,2,0,1,0,0,2,0,0,The largest demographic at DUBOIS is Black.  This demographic makes up 96% of the student population.  The second greatest demographic is Hispanic at 2%.,No/unknown accessibility,TRUE,Half Day,Full Day,,,,TRUE,,,,,,41.653733,-87.61432,,,,Level 1,Good Standing
609815,Edward A Bouchet Math & Science Academy ES,60649,Neighborhood,Principal,TRUE,610,605,93,8,601,3,0,0,0,0,0,3,0,3,The largest demographic at BOUCHET is Black.  This demographic makes up 98.5% of the student population.  The second greatest demographic is Other at 1%.,No/unknown accessibility,TRUE,Half Day,Full Day,,,,TRUE,,,TRUE,,,41.760847,-87.576075,,,,Level 1+,Good Standing
610139,George M Pullman Elementary School,60628,Neighborhood,Principal,TRUE,356,337,47,10,308,42,3,0,0,0,0,3,0,0,The largest demographic at PULLMAN is Black.  This demographic makes up 86.5% of the student population.  The second greatest demographic is Hispanic at 11.8%.,No/unknown accessibility,TRUE,Half Day,Full Day,,TRUE,,TRUE,,,,,,41.688819,-87.609431,,,,Level 1+,Good Standing
609799,Alexander Graham Bell Elementary School,60618,Regional gifted center,Principal,TRUE,964,127,109,40,25,177,579,92,1,0,0,85,5,0,The largest demographic at BELL is White.  This demographic makes up 60.1% of the student population.  The second greatest demographic is Hispanic at 18.4%.,Generally accessible,FALSE,,Full Day,,TRUE,,FALSE,,,,TRUE,,41.94953,-87.686018,,,,Level 1+,Good Standing
609969,Bret Harte Elementary School,60637,Neighborhood,Principal,TRUE,332,251,50,22,285,28,12,1,0,0,0,5,1,0,The largest demographic at HARTE is Black.  This demographic makes up 85.8% of the student population.  The second greatest demographic is Hispanic at 8.4%.,No/unknown accessibility,TRUE,Half Day,Full Day,,TRUE,,TRUE,,TRUE,,,,41.793447,-87.586855,,,,Level 1,Good Standing
610555,Banner Academy West,60651,Citywide-Option,Principal,FALSE,259,249,53,2,238,18,1,0,0,0,0,1,0,1,The largest demographic at BANNER WEST HS is Black.  This demographic makes up 91.9% of the student population.  The second greatest demographic is Hispanic at 6.9%.,No/unknown accessibility,FALSE,,,,,,TRUE,,,,,,41.895638,-87.754224,12.7,11.4,7.7,Inability to Rate,Not Applicable
610293,Genevieve Melody Elementary School,60624,Neighborhood,Principal,TRUE,490,486,63,0,485,3,1,0,0,0,0,0,1,0,The largest demographic at MELODY is Black.  This demographic makes up 99% of the student population.  The second greatest demographic is Hispanic at 0.6%.,No/unknown accessibility,TRUE,Full and Half Day,Full Day,,,,TRUE,,,,,,41.878799,-87.724661,,,,Level 2+,Provisional Support
609879,Charles Gates Dawes Elementary School,60652,Neighborhood,Principal,TRUE,1021,1005,174,235,175,822,10,1,5,0,0,5,3,0,The largest demographic at DAWES is Hispanic.  This demographic makes up 80.5% of the student population.  The second greatest demographic is Black at 17.1%.,No/unknown accessibility,TRUE,Half Day,Full Day,,TRUE,,TRUE,TRUE,,TRUE,,,41.745078,-87.717353,,,,Level 1+,Good Standing
609837,Andrew Carnegie Elementary School,60637,Regional gifted center,Principal,TRUE,645,519,55,2,630,8,4,1,0,0,0,1,1,0,The largest demographic at CARNEGIE is Black.  This demographic makes up 97.7% of the student population.  The second greatest demographic is Hispanic at 1.2%.,No/unknown accessibility,TRUE,Half Day,Full Day,Spanish,,,TRUE,,,,,,41.783368,-87.590795,,,,Level 1,Good Standing
